"Title","Release Year","Locations","Fun Facts","Production Company","Distributor","Director","Writer","Actor 1","Actor 2","Actor 3","Point","Longitude","Latitude","Analysis Neighborhood","Supervisor District","data_as_of","data_loaded_at"
"Murder in the First, Season 3","2016","600 Octavia Street",,"Turner North Center Productions","Turner Network Television (TNT)","Steven Bochcho","Eric Lodal","Taye Diggs","Kathleen Robertson","Ian Anthony Dale","POINT (-122.4247155 37.7778237)","-122.4247155","37.7778237","Hayes Valley","5","2024/12/06 12:17:47 PM","2024/12/18 02:30:38 PM"
"Terminator - Genisys","2015","Mission St., Embarcadero, and Front between Clay and Market",,"T5 Productions LLC","Paramount Pictures","Alan Taylor","James Cameron","Arnold Schwarzenegger","Jason Clarke",,"POINT (-122.3936136 37.7954425)","-122.3936136","37.7954425","Financial District/South Beach","3","2024/12/06 12:17:47 PM","2024/12/18 02:30:38 PM"
"Terminator - Genisys","2015","Powell St at Geary St",,"T5 Productions LLC","Paramount Pictures","Alan Taylor","James Cameron","Arnold Schwarzenegger","Jason Clarke",,"POINT (-122.4082534 37.7873806)","-122.4082534","37.7873806","Tenderloin","3","2024/12/06 12:17:47 PM","2024/12/18 02:30:38 PM"
"Faces of Death","1978",,,"F.O.D Productions","Aquarius Releasing","Conan Le Cilaire","Alan Black","Michael Carr",,,,,,,,"2024/12/06 12:17:47 PM","2024/12/18 02:30:38 PM"
"Chance- Season 1 ep103","2016","60 Potomac",,"TVM Productions","HULU","Michael Lehmann","Kem Nunn","Hugh Laurie","Gretchen Mol","Ethan Suplee","POINT (-122.4324326 37.7701803)","-122.4324326","37.7701803","Haight Ashbury","8","2024/12/06 12:17:47 PM","2024/12/18 02:30:38 PM"
"The Presidio","1988","Civic Center Plaza",,"Paramount Pictures","Paramount Pictures","Peter Hyams","Larry Ferguson","Sean Connery","Mark Harmon","Meg Ryan","POINT (-122.4176986 37.7794929)","-122.4176986","37.7794929","Tenderloin","5","2024/12/06 12:17:47 PM","2024/12/18 02:30:38 PM"
"Getting Even with Dad","1994","140 Maiden Lane",,"Metro-Goldwyn-Mayer (MGM)","Metro-Goldwyn-Mayer (MGM)","Howard Deutch","Tom S. Parker","Macaulay Culkin","Ted Danson",,"POINT (-122.4059124 37.7882738)","-122.4059124","37.7882738","Financial District/South Beach","3","2024/12/06 12:17:47 PM","2024/12/18 02:30:38 PM"
"Bullitt","1968","Candlestick Park Exit, Highway 101",,"Warner Brothers / Seven Arts Seven Arts","Warner Brothers","Peter Yates","Alan R. Trustman","Steve McQueen","Jacqueline Bisset","Robert Vaughn",,,,,,"2024/12/06 12:17:47 PM","2024/12/18 02:30:38 PM"
"Tales of the City","2019","City Lights Books, 261 Columbus Ave",,"Universal Television LLC","Netflix","Alan Poul, Silas Howard, Stacie Passon","Armistead Maupin, Lauren Morelli, Hansol Jung, Marcus Gardley","Laura Linney","Ellen Page","Murray Bartlett","POINT (-122.4065996 37.7976052)","-122.4065996","37.7976052","Chinatown","3","2024/12/06 12:17:47 PM","2024/12/18 02:30:38 PM"
"The Last Black Man in San Francisco","2019","900 Innes Ave","Boat dock","LBMISF, LLC","A24","Joe Talbot","Joe Talbot, Jimmie Fails, Rob Richert","Jimmie Fails","Jonathan Majors","Danny Glover","POINT (-122.3757745 37.7322136)","-122.3757745","37.7322136","Bayview Hunters Point","10","2024/12/06 12:17:47 PM","2024/12/18 02:30:38 PM"
"Americana","2015","Romolo Place @ Fresno St.",,"Sutro Films LLC",,"Zachary Shedd","Zachary Shedd","Kelli Garner","Jack Davenport","Peter Coyote","POINT (-122.4063952 37.7986067)","-122.4063952","37.7986067","North Beach","3","2024/12/06 12:17:47 PM","2024/12/18 02:30:38 PM"
"Big Trouble in Little China","1986",,,"Twentieth Century Fox Film Corporation","Twentieth Century Fox Film Corporation","John Carpenter","Gary Goldman","Kurt Russell","Kim Catrall","James Hong",,,,,,"2024/12/06 12:17:47 PM","2024/12/18 02:30:38 PM"
"Venom: Let There Be Carnage","2021","Palace of Fine Arts",,"SM Film Productions","Sony Pictures","Andy Serkis","Kelly Marcel","Tom Hardy","Michelle Wiliams","Woody Harrelson","POINT (-122.4484231 37.8029308)","-122.4484231","37.8029308","Marina","2","2024/12/06 12:17:47 PM","2024/12/18 02:30:38 PM"
"Magnum Force","1973","Broadway Tunnel (Russian Hill)",,"The Malpaso Company","Warner Bros. Pictures","Ted Post","John Milius","Clint Eastwood","Hal Holbrook","Mitchell Ryan","POINT (-122.4149779 37.7966511)","-122.4149779","37.7966511","Nob Hill","3","2024/12/06 12:17:47 PM","2024/12/18 02:30:38 PM"
"GirlBoss","2017","Fillmore and Waller",,"Hippolyta Productions, LLC","Netflix","Jamie Babbit, Amanda Brotchie, Steven K. Tsuchida, Christian Ditter, John Riggi","Kay Cannon","Britt Robertson","Ellie Reed","Amanda Rea","POINT (-122.4302866 37.7711831)","-122.4302866","37.7711831","Hayes Valley","5","2024/12/06 12:17:47 PM","2024/12/18 02:30:38 PM"
"On the Beach","1959",,,"Stanley Kramer Productions","United Artists","Stanley Kramer","John Paxton","Gregory Peck","Ava Gardner","Fred Astaire",,,,,,"2024/12/06 12:17:47 PM","2024/12/18 02:30:38 PM"
"The Nightmare Before Christmas","1993",,,"Touchstone Pictures","Buena Vista Pictures","Henry Selick","Tim Burton","Danny Elfman","Catherine O'Hara",,,,,,,"2024/12/06 12:17:47 PM","2024/12/18 02:30:38 PM"
"Tweek City","2005",,,"Tweek City LLC","Maverick Entertainment Group","Eric G. Johnson","Eric G. Johnson","Giuseppe Andrews",,,,,,,,"2024/12/06 12:17:47 PM","2024/12/18 02:30:38 PM"
"Mona Lisa Smile","2003",,,"Revolution Studios","Columbia Pictures","Mike Newell","Lawrence Konner","Julia Roberts","Kirsten Dunst",,,,,,,"2024/12/06 12:17:47 PM","2024/12/18 02:30:38 PM"
"Fathers' Day","1997",,,"Northern Lights Entertainment","Columbia Broadcasting System","Ivan Reitman","Lowell Ganz","Robin Williams","Billy Crystal",,,,,,,"2024/12/06 12:17:47 PM","2024/12/18 02:30:38 PM"
"Psych-Out","1968",,,"Dick Clark Productions","American International Pictures (AIP)","Richard Rush","Betty Tusher","Jack Nicholson","Susan Strasberg","Dean Stockwell",,,,,,"2024/12/06 12:17:47 PM","2024/12/18 02:30:38 PM"
"Tin Cup","1996",,,"Regency Enterprises","Warner Bros. Pictures","Ron Shelton","John Norville","Kevin Costner","Rene Russo",,,,,,,"2024/12/06 12:17:47 PM","2024/12/18 02:30:38 PM"
"Happy Gilmore","1996",,,"Brillstein-Grey Entertainment","Universal Pictures","Dennis Dugan","Tim Herlihy","Adam Sandler",,,,,,,,"2024/12/06 12:17:47 PM","2024/12/18 02:30:38 PM"
"Julie and Jack","2003",,,"Moviehead Pictures","Echelon Entertainment","James Nguyen","James Nguyen & Joe Bright","Jenn Gotzon","Tippi Hedren",,,,,,,"2024/12/06 12:17:47 PM","2024/12/18 02:30:38 PM"
"Chance Season 2","2017","Central St between Haight and Page St",,"TVM Productions Inc.","Hulu","Rozann Dawson","Alexandra Cunningham","Hugh Laurie","Greta Lee","Ethan Suplee","POINT (-122.4261014 37.7725136)","-122.4261014","37.7725136","Hayes Valley","8","2024/12/06 12:17:47 PM","2024/12/18 02:30:38 PM"
"I Remember Mama","1948","Fairmont Hotel (950 Mason Street, Nob Hill)","In 1945 the Fairmont hosted the United Nations Conference on International Organization as delegates arrived to draft a charter for the organization. The U.S. Secretary of State, Edward Stettinius drafted the charter in the hotel's Garden Room.","RKO Radio Pictures","RKO Radio Pictures","George Stevens","DeWitt Bodeen","Irene Dunne","Barbara Bel Geddes","Oskar Homolka","POINT (-122.4100923 37.7923883)","-122.4100923","37.7923883","Nob Hill","3","2024/12/06 12:17:47 PM","2024/12/18 02:30:38 PM"
"Venom","2018","Epic Steakhouse, 369 Embarcadero",,"L.O.Z. Productions, Inc.","Columbia Pictures, Sony Pictures Releasing","Ruben Fleischer","Jeff Pinkner, Scott Rosenberg","Tom Hardy","Michelle Wiliams","Riz Ahmed","POINT (-122.3894682 37.7908723)","-122.3894682","37.7908723","Financial District/South Beach","6","2024/12/06 12:17:47 PM","2024/12/18 02:30:38 PM"
"Always Be My Maybe","2019","Heart of the City Farmers Market at UN Plaza",,"Isla Productions, LLC","Netflix","Nahnatchka Khan","Michael Golamco, Randall Park, Ali Wong","Ali Wong","Randall Park","Keanu Reeves","POINT (-122.4164777 37.7794964)","-122.4164777","37.7794964","Tenderloin","5","2024/12/06 12:17:47 PM","2024/12/18 02:30:38 PM"
"Dark Passage","1947","The Malloch Apartment Building (1360 Montgomery Street)",,"Warner Bros. Pictures","Warner Bros. Pictures","Delmer Daves","Delmer Daves & David Goodis","Humphrey Bogart","Lauren Bacal","Bruce Bennett","POINT (-122.4043707 37.8018125)","-122.4043707","37.8018125","North Beach","3","2024/12/06 12:17:47 PM","2024/12/18 02:30:38 PM"
"A View to a Kill","1985","Port of San Francisco",,"Metro-Goldwyn Mayer","MGM/UA Entertainment Company","John Glen","Richard Maibaum","Roger Moore","Christopher Walken","Tanya Roberts","POINT (-122.3921851 37.7947758)","-122.3921851","37.7947758",,,"2024/12/06 12:17:47 PM","2024/12/18 02:30:38 PM"
"Bullitt","1968","John Muir Drive (Lake Merced)",,"Warner Brothers / Seven Arts Seven Arts","Warner Brothers","Peter Yates","Alan R. Trustman","Steve McQueen","Jacqueline Bisset","Robert Vaughn","POINT (-122.4919111 37.7211702)","-122.4919111","37.7211702","Lakeshore","7","2024/12/06 12:17:47 PM","2024/12/18 02:30:38 PM"
"Dirty Harry","1971","Bank of America Building (555 California Street)","The Bank of America Building was the tallest building on the West Coast from 1969-1972, when it was surpassed by the TransAmerica Pyramid. Today, the Bank of America building is the 5th tallest building on the West Coast.","The Malpaso Company","Warner Brothers","Don Siegel","Harry Julian Fink","Clint Eastwood","Harry Guardino",,"POINT (-122.4037515 37.7924396)","-122.4037515","37.7924396","Financial District/South Beach","3","2024/12/06 12:17:47 PM","2024/12/18 02:30:38 PM"
"Terminator - Genisys","2015","Howard St. from Embarcadero to 11 St.",,"T5 Productions LLC","Paramount Pictures","Alan Taylor","James Cameron","Arnold Schwarzenegger","Jason Clarke",,"POINT (-122.40069 37.7843234)","-122.40069","37.7843234","South of Market","6","2024/12/06 12:17:47 PM","2024/12/18 02:30:38 PM"
"Time After Time","1979","Justin Herman Plaza",,"Orion Pictures Corp.","Columbia Broadcasting System (CBS)","Nicholas Meyer","Karl Alexander","Malcolm McDowell","Mary Steenburgen","David Warner","POINT (-122.3952007 37.7951195)","-122.3952007","37.7951195","Financial District/South Beach","3","2024/12/06 12:17:47 PM","2024/12/18 02:30:38 PM"
"The Towering Inferno","1974","Fairmont Hotel (950 Mason Street, Nob Hill)","In 1945 the Fairmont hosted the United Nations Conference on International Organization as delegates arrived to draft a charter for the organization. The U.S. Secretary of State, Edward Stettinius drafted the charter in the hotel's Garden Room.","Irwin Allen Productions","Twentieth Century - Fox","John Guillermin","Stirling Silliphant","Steve McQueen","Paul Newman","William Holden","POINT (-122.4100923 37.7923883)","-122.4100923","37.7923883","Nob Hill","3","2024/12/06 12:17:47 PM","2024/12/18 02:30:38 PM"
"Fearless","1993","400 Montgomery Street",,"Spring Creek Productions","Warner Bros. Pictures","Peter Weir","Rafael Yglesias","Jeff Bridges","Isabella Rosellini","Rosie Perez","POINT (-122.402597 37.7931137)","-122.402597","37.7931137","Financial District/South Beach","3","2024/12/06 12:17:47 PM","2024/12/18 02:30:38 PM"
"The Phone/Jexi","2019","1423 Golden Gate Ave",,"CBS Films Inc.","Lionsgate","Jon Lucas, Scott Moore","Jon Lucas, Scott Moore","Adam Devine","Alexandra Shipp","Michael Pena","POINT (-122.4341795 37.7791726)","-122.4341795","37.7791726","Western Addition","5","2024/12/06 12:17:47 PM","2024/12/18 02:30:38 PM"
"Pacific Heights","1990","Texas & 19th Streets (Potrero Hill)",,"Morgan Creek Productions","Twentieth Century Fox Film Corporation","John Schlesinger","Daniel Pyne","Melanie Griffith","Matthew Modine",,"POINT (-122.3954651 37.7613763)","-122.3954651","37.7613763","Potrero Hill","10","2024/12/06 12:17:47 PM","2024/12/18 02:30:38 PM"
"Sense8","2015","Z Space Studios; 450 Florida St.","Filming of the ""Fresh Meat"" Festival","Unpronounceable Productions, LLC","Netflix","The Wachowskis","The Wachowskis","Jamie Clayton",,,"POINT (-122.411551 37.7637026)","-122.411551","37.7637026","Mission","9","2024/12/06 12:17:47 PM","2024/12/18 02:30:38 PM"
"Steve Jobs","2015","Intersection of Columbus and Kearny",,"RDF Productions LLC","Universal Pictures","Danny Boyle","Aaron Sorkin","Michael Fassbender","Kate Winslet","Seth Rogen","POINT (-122.40488 37.7963942)","-122.40488","37.7963942","Chinatown","3","2024/12/06 12:17:47 PM","2024/12/18 02:30:38 PM"
"Looking Season 2 ep 209","2015","8 Octavia Street",,"Mission Street Productions, LLC","HBO","Andrew Haigh","Michael Lannan","Jonathan Groff","Frankie Alvarez","Murray Bartlett","POINT (-122.4232829 37.7722677)","-122.4232829","37.7722677","Hayes Valley","6","2024/12/06 12:17:47 PM","2024/12/18 02:30:38 PM"
"A View to a Kill","1985","Burger Island (901 3rd Street, China Basin)",,"Metro-Goldwyn Mayer","MGM/UA Entertainment Company","John Glen","Richard Maibaum","Roger Moore","Christopher Walken","Tanya Roberts","POINT (-122.3909413 37.7773998)","-122.3909413","37.7773998","Mission Bay","6","2024/12/06 12:17:47 PM","2024/12/18 02:30:38 PM"
"Looking","2014","St. Francis Fountain",,"Mission Street Productions, LLC","Home Box Office (HBO)","Andrew Haigh","Michael Lannan","Jonathan Groff","Frankie J. Alvarez","Murray Bartlett","POINT (-122.4083444 37.7527111)","-122.4083444","37.7527111","Mission","9","2024/12/06 12:17:47 PM","2024/12/18 02:30:38 PM"
"Chance- Season 1 ep102","2016","Heron and Berwick Alleys",,"TVM Productions","HULU","Lenny Abrahamson","Alexandra Cunningham","Hugh Laurie","Gretchen Mol","Ethan Suplee","POINT (-122.408452 37.7746062)","-122.408452","37.7746062","South of Market","6","2024/12/06 12:17:47 PM","2024/12/18 02:30:38 PM"
"Memoirs of an Invisible Man","1992","St. Elizabeth Apartment House (901 Powell Street at Sacramento)",,"Warner Bros. Pictures","Warner Bros. Pictures","John Carpenter","Robert Collector","Chevy Chase","Daryl Hannah","Sam Neill","POINT (-122.4096668 37.7930759)","-122.4096668","37.7930759","Nob Hill","3","2024/12/06 12:17:47 PM","2024/12/18 02:30:38 PM"
"Looking Season 2 ep 204","2015","Dolores Park, San Francisco","Russell Tovey originally auditioned for the role of Patrick, but was unsuccessful. After the show got picked up, the character of Kevin was written with him in mind.","Mission Street Productions, LLC","HBO","Andrew Haigh","Michael Lannan","Jonathan Groff","Frankie Alvarez","Murray Bartlett","POINT (-122.4266135 37.7608223)","-122.4266135","37.7608223","Castro/Upper Market","8","2024/12/06 12:17:47 PM","2024/12/18 02:30:38 PM"
"Time After Time","1979","Lombard & Broderick Streets (Marina District)",,"Orion Pictures Corp.","Columbia Broadcasting System (CBS)","Nicholas Meyer","Karl Alexander","Malcolm McDowell","Mary Steenburgen","David Warner","POINT (-122.4443547 37.7988553)","-122.4443547","37.7988553","Marina","2","2024/12/06 12:17:47 PM","2024/12/18 02:30:38 PM"
"Experiment in Terror","1962","The Sea Captain's Chest (Fisherman's Wharf)",,"Columbia Pictures Corporation","Columbia Pictures","Blake Edwards","The Gordons","Glenn Ford","Lee Remick","Stefanie Powers","POINT (-122.4159393 37.8081009)","-122.4159393","37.8081009","North Beach","3","2024/12/06 12:17:47 PM","2024/12/18 02:30:38 PM"
"Time After Time","1979","Lombard & Divisadero Streets (Marina District)",,"Orion Pictures Corp.","Columbia Broadcasting System (CBS)","Nicholas Meyer","Karl Alexander","Malcolm McDowell","Mary Steenburgen","David Warner","POINT (-122.4426736 37.7990728)","-122.4426736","37.7990728","Marina","2","2024/12/06 12:17:47 PM","2024/12/18 02:30:38 PM"
"The Bachelor","1999","Danilo's Bakery (Green Street & Bannam Place)",,"George Street Pictures","New Line Cinema","Gary Sinyor","Steve Cohen","Chris O'Donnell","Renee Zellweger",,"POINT (-122.4078578 37.7997928)","-122.4078578","37.7997928","North Beach","3","2024/12/06 12:17:47 PM","2024/12/18 02:30:38 PM"
"Venom","2018","Hyde St at Chestnut St",,"L.O.Z. Productions, Inc.","Columbia Pictures, Sony Pictures Releasing","Ruben Fleischer","Jeff Pinkner, Scott Rosenberg","Tom Hardy","Michelle Wiliams","Riz Ahmed","POINT (-122.4198242 37.8029324)","-122.4198242","37.8029324","Russian Hill","2","2024/12/06 12:17:47 PM","2024/12/18 02:30:38 PM"
"Tales of the City","2019","Grant and Green St",,"Universal Television LLC","Netflix","Alan Poul, Silas Howard, Stacie Passon","Armistead Maupin, Lauren Morelli, Hansol Jung, Marcus Gardley","Laura Linney","Ellen Page","Murray Bartlett","POINT (-122.4075285 37.7998307)","-122.4075285","37.7998307","North Beach","3","2024/12/06 12:17:47 PM","2024/12/18 02:30:38 PM"
"Dirty Harry","1971","St. Peter & Paul's Church (666 Filbert Street, Washington Square)","Though Marilyn Monroe and Joe DiMaggio were not allowed to be married at the Church (DiMaggio had married his first wife at the Church but was divorced), the couple returned to the steps of the Church for photos, following their City Hall nuptials.","The Malpaso Company","Warner Brothers","Don Siegel","Harry Julian Fink","Clint Eastwood","Harry Guardino",,"POINT (-122.4101808 37.8016649)","-122.4101808","37.8016649","North Beach","3","2024/12/06 12:17:47 PM","2024/12/18 02:30:38 PM"
"Chef Dynasty: House of Fang","2022","660 Howard, Fang Chinese Restaurant",,"Quidnet Media, LLC","Food Network",,,"Lillian Phan","Long Vo","Christy-Anne Lopez","POINT (-122.3998015 37.785756)","-122.3998015","37.785756","Financial District/South Beach","6","2024/12/06 12:17:47 PM","2024/12/18 02:30:38 PM"
"Milk","2008","City Hall","The dome of SF's City Hall is almost a foot taller than that of the US Capitol Building. In 1954, Joe DiMaggio and Marilyn Monroe married at the Beaux Arts-style building.","Focus Features","Focus Features","Gus Van Sant","Dustin Lance Black","Sean Penn","Emile Hirsch",,"POINT (-122.4192417 37.779275)","-122.4192417","37.779275","Tenderloin","5","2024/12/06 12:17:47 PM","2024/12/18 02:30:38 PM"
"The Diary of a Teenage Girl","2015","SPECS' Twelve Adler Museum Café",,"Diary the Movie, LLC","Sony Pictures Classics","Marielle Heller","Marielle Heller","Alexander Skarsgard","Kristen Wiig","Christopher Meloni","POINT (-122.4060249 37.7976453)","-122.4060249","37.7976453","North Beach","3","2024/12/06 12:17:47 PM","2024/12/18 02:30:38 PM"
"Getting Even with Dad","1994","California & Grant Streets",,"Metro-Goldwyn-Mayer (MGM)","Metro-Goldwyn-Mayer (MGM)","Howard Dutch","Tom S. Parker","Macaulay Culkin","Ted Danson",,"POINT (-122.4059509 37.7924672)","-122.4059509","37.7924672","Chinatown","3","2024/12/06 12:17:47 PM","2024/12/18 02:30:38 PM"
"Cherish","2002","387 Fair Oaks at 25th Street",,"3 Ring Circus Films","Fine Line Features","Finn Taylor","Finn Taylor","Brad Hunt","Robin Tunney",,"POINT (-122.4236094 37.7506147)","-122.4236094","37.7506147","Mission","8","2024/12/06 12:17:47 PM","2024/12/18 02:30:38 PM"
"Forrest Gump","1994","Palace of Fine Arts (3301 Lyon Street)","The original Palace was built for the 1915 Panama-Pacific Exposition, and completely destroyed in 1964. It was rebuilt in 1965.","Paramount Pictures","Paramount Pictures","Robert Zemeckis","Eric Roth","Tom Hanks","Robin Wright",,"POINT (-122.4491285 37.8026694)","-122.4491285","37.8026694","Marina","2","2024/12/06 12:17:47 PM","2024/12/18 02:30:38 PM"
"The OA Part II","2019","Hyde St at Pacific to Washington St",,"Lunar Mining LLC","Netflix","Zal Batmanglij","Zal Batmanglij, Brit Marling","Brit Marling","Emory Cohen","Patrick Gibson",,,,,,"2024/12/06 12:17:47 PM","2024/12/18 02:30:38 PM"
"Fearless","1993","Kohl Building (400 Montgomery Street)",,"Spring Creek Productions","Warner Bros. Pictures","Peter Weir","Rafael Yglesias","Jeff Bridges","Isabella Rosellini","Rosie Perez","POINT (-122.402597 37.7931137)","-122.402597","37.7931137","Financial District/South Beach","3","2024/12/06 12:17:47 PM","2024/12/18 02:30:38 PM"
"Nash Bridges","2021","Illinois Street at 20th Street",,"Village NB Productions, LLC","USA Nework","Greg Beeman","Carlton Cuse, Bill Chais","Don Johnson","Cheech Marin","Joe Dinicol","POINT (-122.3875896 37.760562)","-122.3875896","37.760562","Potrero Hill","10","2024/12/06 12:17:47 PM","2024/12/18 02:30:38 PM"
"Venom","2018","Edinburgh Castle (950 Geary Street)",,"L.O.Z. Productions, Inc.","Columbia Pictures, Sony Pictures Releasing","Ruben Fleischer","Jeff Pinkner, Scott Rosenberg","Tom Hardy","Michelle Wiliams","Riz Ahmed","POINT (-122.4189908 37.7862658)","-122.4189908","37.7862658","Tenderloin","3","2024/12/06 12:17:47 PM","2024/12/18 02:30:38 PM"
"The Love Bug","1968","Golden Gate Bridge","With 23 miles of ladders and 300,000 rivets in each tower, the Golden Gate Bridge was the world's longest span when it opened in 1937.","Walt Disney Productions","Buena Vista Distribution","Robert Stevenson","Bill Walsh","Dean Jones","Michele Lee","David Tomlinson","POINT (-122.4785598 37.8199109)","-122.4785598","37.8199109",,,"2024/12/06 12:17:47 PM","2024/12/18 02:30:38 PM"
"Chance - Season 1 ep105","2016","State Garage, 818 Leavenworth",,"TVM Productions","HULU","Victoria Morrow","Roxann Dawson","Hugh Laurie","Gretchen Mol","Ethan Suplee","POINT (-122.4151417 37.788739)","-122.4151417","37.788739","Nob Hill","3","2024/12/06 12:17:47 PM","2024/12/18 02:30:38 PM"
"Steve Jobs","2015","21st and Sanchez St",,"RDF Productions LLC","Universal Pictures","Danny Boyle","Aaron Sorkin","Michael Fassbender","Kate Winslet","Seth Rogen","POINT (-122.4301214 37.7563756)","-122.4301214","37.7563756","Castro/Upper Market","8","2024/12/06 12:17:47 PM","2024/12/18 02:30:38 PM"
"Murder in the First, Season 1","2014","1541 Grove Street",,"Turner North Center Productions","Turner Network Television (TNT)","Steven Bochcho","Eric Lodal","Taye Diggs","Kathleen Robertson","Ian Anthony Dale","POINT (-122.4420903 37.7752229)","-122.4420903","37.7752229","Lone Mountain/USF","5","2024/12/06 12:17:47 PM","2024/12/18 02:30:38 PM"
"The Organization","1971",,,"The Mirisch Corporation","United Artists","Don Medford","James R. Webb","Sidney Poitier","Barbara McNair",,,,,,,"2024/12/06 12:17:47 PM","2024/12/18 02:30:38 PM"
"Murder in the First, Season 1","2014","Berry Street between 3rd and 4th Streets",,"Turner North Center Productions","Turner Network Television (TNT)","Steven Bochcho","Eric Lodal","Taye Diggs","Kathleen Robertson","Ian Anthony Dale","POINT (-122.3964021 37.7733908)","-122.3964021","37.7733908","Mission Bay","6","2024/12/06 12:17:47 PM","2024/12/18 02:30:38 PM"
"Fearless","1993","90 Gold Street",,"Spring Creek Productions","Warner Bros. Pictures","Peter Weir","Rafael Yglesias","Jeff Bridges","Isabella Rosellini","Rosie Perez","POINT (-122.4034751 37.7967894)","-122.4034751","37.7967894","Chinatown","3","2024/12/06 12:17:47 PM","2024/12/18 02:30:38 PM"
"Chef Dynasty: House of Fang","2022","Chinatown - Grant Avenue between California and Jackson St",,"Quidnet Media, LLC","Food Network",,,"Lillian Phan","Long Vo","Christy-Anne Lopez","POINT (-122.408083 37.793978)","-122.408083","37.793978","Chinatown","3","2024/12/06 12:17:47 PM","2024/12/18 02:30:38 PM"
"The House on Telegraph Hill","1951","Market Street",,"Twentieth Century Fox Film Corp.","Twentieth Century Fox Film Corp.","Robert Wise","Elick Moll","Richard Basehart","Valentina Cortese","William Lundigan","POINT (-122.4212203 37.7735081)","-122.4212203","37.7735081","Mission","6","2024/12/06 12:17:47 PM","2024/12/18 02:30:38 PM"
"Quitters","2015","21st St & Sanchez",,"Frederick & Ashbury, LLC.",,"Noah Pritzker","Noah Pritzker","Kara Hayward","Mira Sorvino","Saffron Burrows","POINT (-122.4301214 37.7563756)","-122.4301214","37.7563756","Castro/Upper Market","8","2024/12/06 12:17:47 PM","2024/12/18 02:30:38 PM"
"Murder in the First, Season 2","2015","1400 16th Street",,"Turner North Center Productions","Turner Network Television (TNT)","Steven Bochcho","Eric Lodal","Taye Diggs","Kathleen Robertson","Ian Anthony Dale","POINT (-122.4014061 37.7665652)","-122.4014061","37.7665652","Mission Bay","6","2024/12/06 12:17:47 PM","2024/12/18 02:30:38 PM"
"Terminator - Genisys","2015","Construction Site in front of 260 Stockton St. at Post St.",,"T5 Productions LLC","Paramount Pictures","Alan Taylor","James Cameron","Arnold Schwarzenegger","Jason Clarke",,"POINT (-122.406486 37.7883421)","-122.406486","37.7883421","Financial District/South Beach","3","2024/12/06 12:17:47 PM","2024/12/18 02:30:38 PM"
"Always Be My Maybe","2019","717 Grant Ave",,"Isla Productions, LLC","Netflix","Nahnatchka Khan","Michael Golamco, Randall Park, Ali Wong","Ali Wong","Randall Park","Keanu Reeves","POINT (-122.4063975 37.7936544)","-122.4063975","37.7936544","Chinatown","3","2024/12/06 12:17:47 PM","2024/12/18 02:30:38 PM"
"Sonic the Hedgehog","2020","Grid within Montgomery St; Davis St; Pacific St; Bush St",,"Paramount Overseas Productions, Inc.","Paramount Pictures","Jeff Fowler","Josh Miller, Patrick Casey, Oren Uziel","Jim Carrey","James Marsden","Ben Schwartz","POINT (-122.4035145 37.7787489)","-122.4035145","37.7787489","South of Market","6","2024/12/06 12:17:47 PM","2024/12/18 02:30:38 PM"
"Boys and Girls","2000","Lombard Street","Lombard Street is not actually the most crooked in SF. That honor goes to Potrero Hill's Vermont Street between 22nd and 23rd.","Punch 21 Productions","Dimension Films","Robert Iscove","The Drews","Freddie Prinze, Jr.","Alyson Hannigan",,"POINT (-122.4195579 37.8020179)","-122.4195579","37.8020179","Russian Hill","3","2024/12/06 12:17:47 PM","2024/12/18 02:30:38 PM"
"Chance- Season 1 ep110","2016","Cliffhouse, 1090 Point Lobos Ave.",,"TVM Productions","HULU","Alexandra Cunningham and Kem Nunn","Michael Lehmann","Hugh Laurie","Gretchen Mol","Ethan Suplee","POINT (-122.5137962 37.7783123)","-122.5137962","37.7783123","Outer Richmond","1","2024/12/06 12:17:47 PM","2024/12/18 02:30:38 PM"
"Nash Bridges","2021","Jessie Street between 6th Street and Mint",,"Village NB Productions, LLC","USA Nework","Greg Beeman","Carlton Cuse, Bill Chais","Don Johnson","Cheech Marin","Joe Dinicol","POINT (-122.4074094 37.7824123)","-122.4074094","37.7824123","South of Market","6","2024/12/06 12:17:47 PM","2024/12/18 02:30:38 PM"
"Sense8 - Season 2","2016","Billy Goat Hill, Castro St. & 30th St.","This park was the location of a popular swing with great views of the City.","Unpronounceable Productions, LLC","Netflix","Wachowski Siblings","J. Michael Straczynski, Wachowiski Siblings","Jamie Clayton","Daryl Hannah","Naveen Andrews","POINT (-122.4331318 37.7413462)","-122.4331318","37.7413462","Glen Park","8","2024/12/06 12:17:47 PM","2024/12/18 02:30:38 PM"
"Bicentennial Man","1999","Postcard Row, Alamo Square, Hayes Valley","The 6 Victorian homes across from Alamo Square Park are among the few Victorians to survive the Great Fire.","1492 Pictures","Buena Vista Pictures","Chris Columbus","Nicholas Kazan","Robin Williams",,,"POINT (-122.4327231 37.7760676)","-122.4327231","37.7760676","Hayes Valley","5","2024/12/06 12:17:47 PM","2024/12/18 02:30:38 PM"
"Murder in the First, Season 3","2016","Golden Gate Park",,"Turner North Center Productions","Turner Network Television (TNT)","Steven Bochcho","Eric Lodal","Taye Diggs","Kathleen Robertson","Ian Anthony Dale","POINT (-122.482977 37.7689203)","-122.482977","37.7689203","Golden Gate Park","4","2024/12/06 12:17:47 PM","2024/12/18 02:30:38 PM"
"Quitters","2015","Geary from 22nd Ave to Arguello",,"Frederick & Ashbury, LLC.",,"Noah Pritzker","Noah Pritzker","Kara Hayward","Mira Sorvino","Saffron Burrows",,,,,,"2024/12/06 12:17:47 PM","2024/12/18 02:30:38 PM"
"Petulia","1968","Cala Foods (California Street and Hyde)",,"Warner Brothers / Seven Arts","Warner Brothers / Seven Arts","Richard Lester","Lawrence B. Marcus","Julie Christie","George C. Scott","Richard Chamberlain","POINT (-122.4178625 37.7907126)","-122.4178625","37.7907126","Nob Hill","3","2024/12/06 12:17:47 PM","2024/12/18 02:30:38 PM"
"So I Married an Axe Murderer","1993","Vesuvio Café (255 Columbus Avenue)","Jack Kerouac was a regular at the café.","TriStar Pictures","TriStar Pictures","Thomas Schlamme","Robbie Fox","Mike Myers","Nancy Travis",,"POINT (-122.4065082 37.7974835)","-122.4065082","37.7974835","Chinatown","3","2024/12/06 12:17:47 PM","2024/12/18 02:30:38 PM"
"Invasion of the Body Snatchers","1978","Chinatown","First established in the mid-19th Century, SF's Chinatown is the oldest and largest Chinatown in the US.","Solofilm","United Artists","Philip Kaufman","Jack Finney","Donald Sutherland","Jeff Goldblum","Brooke Adams","POINT (-122.4048082 37.7944675)","-122.4048082","37.7944675","Chinatown","3","2024/12/06 12:17:47 PM","2024/12/18 02:30:38 PM"
"Ant-Man and the Wasp","2018","Saint Louis Alley at Jackson",,"PYM Particles Productions II, LLC","Walt Disney Studios Motion Pictures","Peyton Reed","Chris McKenna","Paul Rudd","Evangeline Lilly","Michael Douglas","POINT (-122.4071135 37.7959798)","-122.4071135","37.7959798","Chinatown","3","2024/12/06 12:17:47 PM","2024/12/18 02:30:38 PM"
"Sweet November","2001","Marquee Lofts (1000 Van Ness Avenue at Alice B. Toklas Place)",,"Warner Bros. Pictures","Warner Bros. Pictures","Pat O'Connor","Paul Yurick","Keanu Reeves","Charlize Theron",,"POINT (-122.420682 37.785098)","-122.420682","37.785098","Tenderloin","5","2024/12/06 12:17:47 PM","2024/12/18 02:30:38 PM"
"Need For Speed","2014","Powell St. from Geary to Sacramento",,"Need For Speed Productions, LLC","Walt Disney Studios Motion Pictures","Scott Waugh","George Gatins","Aaron Paul","Dominic Cooper","Imogen Poots","POINT (-122.4086079 37.7873909)","-122.4086079","37.7873909","Tenderloin","3","2024/12/06 12:17:47 PM","2024/12/18 02:30:38 PM"
"The Matrix Resurrections","2021","California at Grant Ave",,"Adobe Pictures, Inc.","Warner Brothers","Lana Wachowski","Lana Wachowski, David Mitchell, Aleksander Hemon","Keanu Reeves","Keanu Reeves","Neil Patrick Harris","POINT (-122.4059509 37.7924672)","-122.4059509","37.7924672","Chinatown","3","2024/12/06 12:17:47 PM","2024/12/18 02:30:38 PM"
"Doctor Dolittle","1998","Larkin & Hyde Streets",,"Twentieth Century Fox Film Cooperation","Twentieth Century Fox Film Cooperation","Betty Thomas","Nat Mauldin","Eddie Murphy","Ossie Davis",,"POINT (-122.420094 37.8042687)","-122.420094","37.8042687","Russian Hill","2","2024/12/06 12:17:47 PM","2024/12/18 02:30:38 PM"
"The OA Part II","2019","Red's Java House (Pier 30-32, The Embarcadero)",,"Lunar Mining LLC","Netflix","Zal Batmanglij","Zal Batmanglij, Brit Marling","Brit Marling","Emory Cohen","Patrick Gibson","POINT (-122.3874201 37.7872065)","-122.3874201","37.7872065","Financial District/South Beach","6","2024/12/06 12:17:47 PM","2024/12/18 02:30:38 PM"
"Alive","2020","Embarcadero near Pier 14",,"CBS Corporation - CBS Studios Inc./CBS Television Studios","CBS","Uta Briesewitz","Jason Tracey","Ryan Phillippe","Mageina Tovah","Katrina Law","POINT (-122.3908828 37.7938381)","-122.3908828","37.7938381",,,"2024/12/06 12:17:47 PM","2024/12/18 02:30:38 PM"
"Murder in the First, Season 2","2015","83 Watchman Way",,"Turner North Center Productions","Turner Network Television (TNT)","Steven Bochcho","Eric Lodal","Taye Diggs","Kathleen Robertson","Ian Anthony Dale","POINT (-122.3951441 37.7558204)","-122.3951441","37.7558204","Potrero Hill","10","2024/12/06 12:17:47 PM","2024/12/18 02:30:38 PM"
"The Maltese Falcon","1941","Golden Gate Bridge","With 23 miles of ladders and 300,000 rivets in each tower, the Golden Gate Bridge was the world's longest span when it opened in 1937.","Warner Bros. Pictures","Warner Bros. Pictures","John Huston","John Huston","Humphrey Bogart","Mary Astor","Gladys George","POINT (-122.4785598 37.8199109)","-122.4785598","37.8199109",,,"2024/12/06 12:17:47 PM","2024/12/18 02:30:38 PM"
"180","2011","Polk & Larkin Streets",,"SPI Cinemas",,"Jayendra","Umarji Anuradha, Jayendra, Aarthi Sriram, & Suba","Siddarth","Nithya Menon","Priya Anand","POINT (-122.4225306 37.7989333)","-122.4225306","37.7989333","Russian Hill","3","2024/12/06 12:17:47 PM","2024/12/18 02:30:38 PM"
"The Dead Pool","1988","Mirant Energy, LLC (1301 Illinois Street, The Dogpatch)",,"Warner Bros. Pictures","Warner Bros. Pictures","Buddy Van Horn","Harry Julian Fink","Clint Eastwood","Liam Neeson","Patricia Clarkson","POINT (-122.3829866 37.7562813)","-122.3829866","37.7562813","Potrero Hill","10","2024/12/06 12:17:47 PM","2024/12/18 02:30:38 PM"
"GirlBoss","2017","Various Haight St. Vintage Shops",,"Hippolyta Productions, LLC","Netflix","Jamie Babbit, Amanda Brotchie, Steven K. Tsuchida, Christian Ditter, John Riggi","Kay Cannon","Britt Robertson","Ellie Reed","Amanda Rea","POINT (-122.4465909 37.7698782)","-122.4465909","37.7698782","Haight Ashbury","5","2024/12/06 12:17:47 PM","2024/12/18 02:30:38 PM"
"Women is Losers","2020","Laguna Honda Hospital - 375 Laguna Honda Blvd.",,"Look at the Moon Pictures",,"Lissette Feliciano","Lissette Feliciano","Lorenza Izzo","Simu Liu","Liza Weil","POINT (-122.4548745 37.7475379)","-122.4548745","37.7475379","Twin Peaks","7","2024/12/06 12:17:47 PM","2024/12/18 02:30:38 PM"
"Blue Jasmine","2013","5546 Geary Ave",,"Perdido Productions","Sony Pictures Classics","Woody Allen","Woody Allen","Cate Blanchett","Alec Baldwin","Peter Sarsgaard","POINT (-122.4791515 37.780586)","-122.4791515","37.780586","Outer Richmond","1","2024/12/06 12:17:47 PM","2024/12/18 02:30:38 PM"
"Guess Who's Coming to Dinner","1967","San Francisco International Airport","SFO has a museum dedicated to aviation history.","Columbia Pictures Corporation","Columbia Pictures","Stanley Kramer","William Rose","Spencer Tracy","Sidney Poitier","Katharine Hepburn","POINT (-122.3816274 37.6191145)","-122.3816274","37.6191145",,,"2024/12/06 12:17:47 PM","2024/12/18 02:30:38 PM"
"When We Rise","2017","Eureka Arts Center, 4400 20th St.",,"Film 49 Productions","Amercian Broadcasting Company","Gus Van Sant","Dustin Lance Black","Guy Pierce","Mary-Louise Parker","Michael Kenneth Williams","POINT (-122.4370713 37.7577693)","-122.4370713","37.7577693","Castro/Upper Market","8","2024/12/06 12:17:47 PM","2024/12/18 02:30:38 PM"
"Under the Tuscan Sun","2003","Mecca Restaurant (2029 Market Street)",,"Touchstone Pictures","Buena Vista Pictures","Audrey Wells","Audrey Wells","Diane Lane","Sandra Oh",,"POINT (-122.4274729 37.7683588)","-122.4274729","37.7683588","Castro/Upper Market","8","2024/12/06 12:17:47 PM","2024/12/18 02:30:38 PM"
"The Diary of a Teenage Girl","2015","304 Lily St.",,"Diary the Movie, LLC","Sony Pictures Classics","Marielle Heller","Marielle Heller","Alexander Skarsgard","Kristen Wiig","Christopher Meloni","POINT (-122.4261039 37.7742084)","-122.4261039","37.7742084","Hayes Valley","5","2024/12/06 12:17:47 PM","2024/12/18 02:30:38 PM"
"Sense8 - Season 2","2016","67-69 Deming St.",,"Unpronounceable Productions, LLC","Netflix","Wachowski Siblings","J. Michael Straczynski, Wachowiski Siblings","Jamie Clayton","Daryl Hannah","Naveen Andrews","POINT (-122.445782 37.760369)","-122.445782","37.760369","Castro/Upper Market","8","2024/12/06 12:17:47 PM","2024/12/18 02:30:38 PM"
"Play it Again, Sam","1972","Balboa at 22nd Avenue",,"Paramount Pictures","Paramount Pictures","Herbert Ross","Woody Allen","Woody Allen","Diane Keaton","Tony Roberts","POINT (-122.4812701 37.776455)","-122.4812701","37.776455","Outer Richmond","1","2024/12/06 12:17:47 PM","2024/12/18 02:30:38 PM"
"Venom","2018","Embarcadero btwn Folsom and Bryant","Motorcycle/SUV chase scene","L.O.Z. Productions, Inc.","Columbia Pictures, Sony Pictures Releasing","Ruben Fleischer","Jeff Pinkner, Scott Rosenberg","Tom Hardy","Michelle Wiliams","Riz Ahmed","POINT (-122.3895614 37.7904588)","-122.3895614","37.7904588","Financial District/South Beach","6","2024/12/06 12:17:47 PM","2024/12/18 02:30:38 PM"
"A View to a Kill","1985","City Hall","The dome of SF's City Hall is almost a foot taller than that of the US Capitol Building. In 1954, Joe DiMaggio and Marilyn Monroe married at the Beaux Arts-style building.","Metro-Goldwyn Mayer","MGM/UA Entertainment Company","John Glen","Richard Maibaum","Roger Moore","Christopher Walken","Tanya Roberts","POINT (-122.4192417 37.779275)","-122.4192417","37.779275","Tenderloin","5","2024/12/06 12:17:47 PM","2024/12/18 02:30:38 PM"
"Chance- Season 1 ep103","2016","Laguna Honda Hospital",,"TVM Productions","HULU","Michael Lehmann","Kem Nunn","Hugh Laurie","Gretchen Mol","Ethan Suplee","POINT (-122.4568847 37.7490613)","-122.4568847","37.7490613","Twin Peaks","7","2024/12/06 12:17:47 PM","2024/12/18 02:30:38 PM"
"Freebie and the Bean","1974","Hyatt Regency Hotel (5 Embarcadero Center)",,"Warner Bros. Pictures","American Broadcasting Company (ABC)","Richard Rush","Robert Kaufman","Alan Arkin","James Caan","Loretta Swit","POINT (-122.3956663 37.7942169)","-122.3956663","37.7942169","Financial District/South Beach","3","2024/12/06 12:17:47 PM","2024/12/18 02:30:38 PM"
"After the Thin Man","1936","Coit Tower","The Tower was funded by a gift bequeathed by Lillie Hitchcock Coit, a socialite who reportedly liked to chase fires. Though the tower resembles a firehose nozzle, it was not designed this way.","Metro-Goldwyn Mayer","Metro-Goldwyn Mayer","W.S. Van Dyke","Frances Goodrich","William Powell","Myrna Loy","James Stewart","POINT (-122.4058222 37.8023949)","-122.4058222","37.8023949","North Beach","3","2024/12/06 12:17:47 PM","2024/12/18 02:30:38 PM"
"Smile Again, Jenny Lee","2015","Gaspare's Pizza House (5546 Geary Blvd.)",,"Carlo Caldana/Marguery Films",,"Carlo Caldana","Linda Demetrick","Craig Tsuyumine","Puneet Prasad","Larry Kitagawa","POINT (-122.4791515 37.780586)","-122.4791515","37.780586","Outer Richmond","1","2024/12/06 12:17:47 PM","2024/12/18 02:30:38 PM"
"Edtv","1999","1138 Filbert Street",,"Imagine Entertainment","MCA / Universal Pictures","Ron Howard","Lowell Ganz","Matthew McConaughey","Jenna Elfman",,"POINT (-122.4183353 37.8006695)","-122.4183353","37.8006695","Russian Hill","3","2024/12/06 12:17:47 PM","2024/12/18 02:30:38 PM"
"Chance- Season 1 ep103","2016","17th and Arkansas",,"TVM Productions","HULU","Michael Lehmann","Kem Nunn","Hugh Laurie","Gretchen Mol","Ethan Suplee","POINT (-122.3987241 37.765027)","-122.3987241","37.765027","Mission Bay","10","2024/12/06 12:17:47 PM","2024/12/18 02:30:38 PM"
"A Taiwanese Tale of Two Cities","2018","Castro Theatre, 429 Castro St.",,"Envision Productions Inc.","Netflix","Tien-Lun Yeh","Ling-Hui Chen, Nancy Chen, Chih-Chi Fan, Chia-Hui Lin","Tammy Cheng","Peggy Tseng","Shen-Hao Wen","POINT (-122.4347365 37.7619917)","-122.4347365","37.7619917","Castro/Upper Market","8","2024/12/06 12:17:47 PM","2024/12/18 02:30:38 PM"
"DEVS","2020","Haight Ashbury - Central at Page, Haight at Masonic, Haight at Clayton",,"Minim Productions","FX Network","Alex Garland","Alex Garland","Sonoya Mizuno","Nick Offerman","Jin Ha","POINT (-122.4453615 37.7702175)","-122.4453615","37.7702175","Haight Ashbury","5","2024/12/06 12:17:47 PM","2024/12/18 02:30:38 PM"
"Vertigo","1958","Conservatory of Flowers (Golden Gate Park)","The Conservatory, unveiled in 1879, is the oldest public conservatory in the Western Hemisphere.","Alfred J. Hitchcock Productions","Paramount Pictures","Alfred Hitchcock","Alec Coppel","James Stewart","Kim Novak","Barbara Bel Geddes","POINT (-122.4602558 37.7726187)","-122.4602558","37.7726187","Golden Gate Park","1","2024/12/06 12:17:47 PM","2024/12/18 02:30:38 PM"
"GirlBoss","2017","Filbert between Leavenworth and Hyde",,"Hippolyta Productions, LLC","Netflix","Jamie Babbit, Amanda Brotchie, Steven K. Tsuchida, Christian Ditter, John Riggi","Kay Cannon","Britt Robertson","Ellie Reed","Amanda Rea","POINT (-122.4191684 37.8000576)","-122.4191684","37.8000576","Russian Hill","3","2024/12/06 12:17:47 PM","2024/12/18 02:30:38 PM"
"Looking","2014","Doc's Clock",,"Mission Street Productions, LLC","Home Box Office (HBO)","Andrew Haigh","Michael Lannan","Jonathan Groff","Frankie J. Alvarez","Murray Bartlett","POINT (-122.4188764 37.7583482)","-122.4188764","37.7583482","Mission","9","2024/12/06 12:17:47 PM","2024/12/18 02:30:38 PM"
"The Dead Pool","1988","Portsmouth Square (Chinatown)",,"Warner Bros. Pictures","Warner Bros. Pictures","Buddy Van Horn","Harry Julian Fink","Clint Eastwood","Liam Neeson","Patricia Clarkson","POINT (-122.4052341 37.7948896)","-122.4052341","37.7948896","Chinatown","3","2024/12/06 12:17:47 PM","2024/12/18 02:30:38 PM"
"The Matrix Resurrections","2021","Joe & The Juice, 235 Montgomery",,"Adobe Pictures, Inc.","Warner Brothers","Lana Wachowski","Lana Wachowski, David Mitchell, Aleksander Hemon","Keanu Reeves","Keanu Reeves","Neil Patrick Harris","POINT (-122.4028796 37.7913674)","-122.4028796","37.7913674","Financial District/South Beach","3","2024/12/06 12:17:47 PM","2024/12/18 02:30:38 PM"
"Shang-Chi and the Legend of the Ten Rings","2021","Bush between Hyde and Kearny, Sutter between Hyde and Kearny",,"Freelance Restorations LLC","Disney/Marvel","Destin Daniel Cretton","Dave Callaham, Destin Daniel Cretton, Andrew Lanham","Simu Liu","Tony Chiu-Wai Leung","Awkwafina","POINT (-122.4170528 37.7882309)","-122.4170528","37.7882309","Nob Hill","3","2024/12/06 12:17:47 PM","2024/12/18 02:30:38 PM"
"Chance- Season 1 ep103","2016","350 Santa Ana Ave.",,"TVM Productions","HULU","Michael Lehmann","Kem Nunn","Hugh Laurie","Gretchen Mol","Ethan Suplee","POINT (-122.4682799 37.7306244)","-122.4682799","37.7306244","West of Twin Peaks","7","2024/12/06 12:17:47 PM","2024/12/18 02:30:38 PM"
"Murder in the First, Season 2","2015","Embarcadero Street at Washington Street",,"Turner North Center Productions","Turner Network Television (TNT)","Steven Bochcho","Eric Lodal","Taye Diggs","Kathleen Robertson","Ian Anthony Dale","POINT (-122.3952588 37.7967391)","-122.3952588","37.7967391","Financial District/South Beach","3","2024/12/06 12:17:47 PM","2024/12/18 02:30:38 PM"
"Murder in the First, Season 2","2015","Treasure Island",,"Turner North Center Productions","Turner Network Television (TNT)","Steven Bochcho","Eric Lodal","Taye Diggs","Kathleen Robertson","Ian Anthony Dale","POINT (-122.3699786 37.825284)","-122.3699786","37.825284","Treasure Island","6","2024/12/06 12:17:47 PM","2024/12/18 02:30:38 PM"
"Terminator - Genisys","2015","1 Market St. Landmark Building",,"T5 Productions LLC","Paramount Pictures","Alan Taylor","James Cameron","Arnold Schwarzenegger","Jason Clarke",,"POINT (-122.3948203 37.7941767)","-122.3948203","37.7941767","Financial District/South Beach","6","2024/12/06 12:17:47 PM","2024/12/18 02:30:38 PM"
"Chance - Season 1 ep105","2016","The Drew School, 2901 California",,"TVM Productions","HULU","Victoria Morrow","Roxann Dawson","Hugh Laurie","Gretchen Mol","Ethan Suplee","POINT (-122.442352 37.787638)","-122.442352","37.787638","Pacific Heights","2","2024/12/06 12:17:47 PM","2024/12/18 02:30:38 PM"
"Looking Season 2 ep 208","2015","950 Mason Street",,"Mission Street Productions, LLC","HBO","Andrew Haigh","Michael Lannan","Jonathan Groff","Frankie Alvarez","Murray Bartlett","POINT (-122.4100923 37.7923883)","-122.4100923","37.7923883","Nob Hill","3","2024/12/06 12:17:47 PM","2024/12/18 02:30:38 PM"
"Vertigo","1958","Gough & Eddy Streets (Western Addition)",,"Alfred J. Hitchcock Productions","Paramount Pictures","Alfred Hitchcock","Alec Coppel","James Stewart","Kim Novak","Barbara Bel Geddes","POINT (-122.4241318 37.7824801)","-122.4241318","37.7824801","Western Addition","2","2024/12/06 12:17:47 PM","2024/12/18 02:30:38 PM"
"Woman on the Run","1950","1801 Laguna at Bush",,"Fidelity Pictures Corporation","Universal Pictures","Norman Foster","Norman Foster","Ann Sheridan","Dennis O'Keefe","Robert Keith","POINT (-122.428818 37.787744)","-122.428818","37.787744","Pacific Heights","5","2024/12/06 12:17:47 PM","2024/12/18 02:30:38 PM"
"The Matrix Resurrections","2021","155 California",,"Adobe Pictures, Inc.","Warner Brothers","Lana Wachowski","Lana Wachowski, David Mitchell, Aleksander Hemon","Keanu Reeves","Keanu Reeves","Neil Patrick Harris","POINT (-122.3984911 37.7932242)","-122.3984911","37.7932242","Financial District/South Beach","3","2024/12/06 12:17:47 PM","2024/12/18 02:30:38 PM"
"Guess Who's Coming to Dinner","1967","Mel's Drive-In (Corner South Van Ness & Mission St.)","This restaurant location was demolished; however another Mel's was reopened in 1986 on 3355 Geary Blvd.","Columbia Pictures Corporation","Columbia Pictures","Stanley Kramer","William Rose","Spencer Tracy","Sidney Poitier","Katharine Hepburn","POINT (-122.4044376 37.7840396)","-122.4044376","37.7840396","South of Market","6","2024/12/06 12:17:47 PM","2024/12/18 02:30:38 PM"
"Star Trek VI: The Undiscovered Country","1991","Golden Gate Bridge","With 23 miles of ladders and 300,000 rivets in each tower, the Golden Gate Bridge was the world's longest span when it opened in 1937.","Paramount Pictures","Paramount Pictures","Nicholas Meyer","Nimoy","William Shatner","Leonard Nimoy","George Takei","POINT (-122.4785598 37.8199109)","-122.4785598","37.8199109",,,"2024/12/06 12:17:47 PM","2024/12/18 02:30:38 PM"
"Chance- Season 1 ep104","2016","11 San Jacinto Ave.",,"TVM Productions","HULU","Carl Franklin","Peter Elkoff","Hugh Laurie","Gretchen Mol","Ethan Suplee","POINT (-122.4632436 37.7353289)","-122.4632436","37.7353289","West of Twin Peaks","7","2024/12/06 12:17:47 PM","2024/12/18 02:30:38 PM"
"Blue Jasmine","2013","Aub Zam Zam Bar",,"Perdido Productions","Sony Pictures Classics","Woody Allen","Woody Allen","Cate Blanchett","Alec Baldwin","Peter Sarsgaard","POINT (-122.4493528 37.7695639)","-122.4493528","37.7695639","Haight Ashbury","5","2024/12/06 12:17:47 PM","2024/12/18 02:30:38 PM"
"Chance Season 2","2017","Duboce between Buena Vista East and Alpine St",,"TVM Productions Inc.","Hulu","Rozann Dawson","Alexandra Cunningham","Hugh Laurie","Greta Lee","Ethan Suplee","POINT (-122.4383558 37.7690522)","-122.4383558","37.7690522","Haight Ashbury","8","2024/12/06 12:17:47 PM","2024/12/18 02:30:38 PM"
"The Dead Pool","1988","KGO-TV ABC7 TV Studios (900 Front Street, Waterfront Historic District)",,"Warner Bros. Pictures","Warner Bros. Pictures","Buddy Van Horn","Harry Julian Fink","Clint Eastwood","Liam Neeson","Patricia Clarkson","POINT (-122.3994771 37.800136)","-122.3994771","37.800136","Financial District/South Beach","3","2024/12/06 12:17:47 PM","2024/12/18 02:30:38 PM"
"Goliath- Season 4","2021","Fort Point (Golden Gate National Recreation Area)",,"Picrow, Inc.","Amazon Studios","Billy Bob Thornton, Lawrence Trilling, Derek Johansen","David E. Kelley, Jonathan Shapiro","Billy Bob Thornton","Nina Arianda","Tania Raymonde","POINT (-122.47709 37.8106117)","-122.47709","37.8106117","Presidio","2","2024/12/06 12:17:47 PM","2024/12/18 02:30:38 PM"
"Patch Adams","1998","Presidio (Golden Gate National Recreation Area)","In 1776, Spain made the Presidio a fortified area. The area was then given to Mexico, but then given to the US in 1848. The 1994 demilitarization of the area in 1994 marked the end of its 219 years of military use.","Bungalow 78 Productions","Universal Pictures","Tom Shadyac","Steve Oedekerk","Robin Williams","Philip Seymour Hoffman",,"POINT (-122.4810057 37.7923841)","-122.4810057","37.7923841","Presidio","2","2024/12/06 12:17:47 PM","2024/12/18 02:30:38 PM"
"Murder in the First, Season 2","2015","372/374 Pennsylvania Avenue",,"Turner North Center Productions","Turner Network Television (TNT)","Steven Bochcho","Eric Lodal","Taye Diggs","Kathleen Robertson","Ian Anthony Dale","POINT (-122.3938338 37.7618033)","-122.3938338","37.7618033","Potrero Hill","10","2024/12/06 12:17:47 PM","2024/12/18 02:30:38 PM"
"Blue Jasmine","2013","200 Post St.",,"Perdido Productions","Sony Pictures Classics","Woody Allen","Woody Allen","Cate Blanchett","Alec Baldwin","Peter Sarsgaard","POINT (-122.4053893 37.788804)","-122.4053893","37.788804","Financial District/South Beach","3","2024/12/06 12:17:47 PM","2024/12/18 02:30:38 PM"
"Venom","2018","Potrero Hill: Rhode Island btwn 15th and 16th",,"L.O.Z. Productions, Inc.","Columbia Pictures, Sony Pictures Releasing","Ruben Fleischer","Jeff Pinkner, Scott Rosenberg","Tom Hardy","Michelle Wiliams","Riz Ahmed",,,,,,"2024/12/06 12:17:47 PM","2024/12/18 02:30:38 PM"
"Shit and Champagne","2020","1090 Eddy St",,"Shaboom Boom, LLC",,"D'Arcy Drollinger","D'Arcy Drollinger","D'Arcy Drollinger","Matthew Martin","Steven LeMay","POINT (-122.4256018 37.7825651)","-122.4256018","37.7825651","Western Addition","2","2024/12/06 12:17:47 PM","2024/12/18 02:30:38 PM"
"The Doors","1991",,,"Bill Graham Films","TriStar Pictures","Oliver Stone","J. Randal Johnson","Val Kilmer","Meg Ryan",,,,,,,"2024/12/06 12:17:47 PM","2024/12/18 02:30:38 PM"
"Time After Time","1979","California Academy of Sciences (Golden Gate Park)","Founded in 1853, 3 years after California joined the United States, the Academy was originally named the California Academy of Natural Sciences and was the first institution of its kind in the United States.","Orion Pictures Corp.","Columbia Broadcasting System (CBS)","Nicholas Meyer","Karl Alexander","Malcolm McDowell","Mary Steenburgen","David Warner","POINT (-122.4660947 37.7698646)","-122.4660947","37.7698646","Golden Gate Park","7","2024/12/06 12:17:47 PM","2024/12/18 02:30:38 PM"
"Looking Season 2 ep 210","2015","Vega Coffee, 1245 Folsom Street",,"Mission Street Productions, LLC","HBO","Andrew Haigh","Michael Lannan","Jonathan Groff","Frankie Alvarez","Murray Bartlett","POINT (-122.4105336 37.7742157)","-122.4105336","37.7742157","South of Market","6","2024/12/06 12:17:47 PM","2024/12/18 02:30:38 PM"
"Shit and Champagne","2020","Gerke Alley at Grant",,"Shaboom Boom, LLC",,"D'Arcy Drollinger","D'Arcy Drollinger","D'Arcy Drollinger","Matthew Martin","Steven LeMay","POINT (-122.4079226 37.8022093)","-122.4079226","37.8022093","North Beach","3","2024/12/06 12:17:47 PM","2024/12/18 02:30:38 PM"
"George of the Jungle","1997","The Tamalpais Building (1201 Greenwich Street at Hyde)",,"Walt Disney Pictures","Buena Vista Pictures","Sam Weisman","Jay Ward","Brendan Fraser","Leslie Mann",,"POINT (-122.4197304 37.8007671)","-122.4197304","37.8007671","Russian Hill","3","2024/12/06 12:17:47 PM","2024/12/18 02:30:38 PM"
"Blue Jasmine","2013","Real Guitars",,"Perdido Productions","Sony Pictures Classics","Woody Allen","Woody Allen","Cate Blanchett","Alec Baldwin","Peter Sarsgaard","POINT (-122.4174864 37.7734127)","-122.4174864","37.7734127","Mission","6","2024/12/06 12:17:47 PM","2024/12/18 02:30:38 PM"
"Surface","2022","Powell Street at Geary",,"Apple Studios, LLC","Apple TV+","Sam Miller, Kevin Rodney Sullivan, Jennifer Morrison, Tucker Gates","Veronica West, Erica L. Anderson,Tony Saltzman, Glenise Mullins, Leigh Ann Biety, Dan Lee West, Leigh Ann Biety & Raven Jackson, Martín Zimmerman","Gugu Mbatha-Raw","Oliver Jackson-Cohen","Ari Graynor","POINT (-122.4082534 37.7873806)","-122.4082534","37.7873806","Tenderloin","3","2024/12/06 12:17:47 PM","2024/12/18 02:30:38 PM"
"The Rock","1996","Fairmont Hotel (950 Mason Street, Nob Hill)","In 1945 the Fairmont hosted the United Nations Conference on International Organization as delegates arrived to draft a charter for the organization. The U.S. Secretary of State, Edward Stettinius drafted the charter in the hotel's Garden Room.","Hollywood Pictures","Buena Vista Pictures","Michael Bay","David Weisberg","Sean Connery","Nicolas Cage",,"POINT (-122.4100923 37.7923883)","-122.4100923","37.7923883","Nob Hill","3","2024/12/06 12:17:47 PM","2024/12/18 02:30:38 PM"
"Godzilla","2014","Eddy & Taylor St.",,"Nautilus Productions, LLC","Warner Bros. Pictures","Gareth Edwards","Max Borenstein","Aaron Taylor-Johnson","Elizabeth Olsen","Bryan Cranston","POINT (-122.4109867 37.78416)","-122.4109867","37.78416","Tenderloin","5","2024/12/06 12:17:47 PM","2024/12/18 02:30:38 PM"
"The OA Part II","2019","Harrison St to Beale St to Bryant St",,"Lunar Mining LLC","Netflix","Zal Batmanglij","Zal Batmanglij, Brit Marling","Brit Marling","Emory Cohen","Patrick Gibson","POINT (-122.4044245 37.7771618)","-122.4044245","37.7771618","South of Market","6","2024/12/06 12:17:47 PM","2024/12/18 02:30:38 PM"
"A Taiwanese Tale of Two Cities","2018","Pier 7",,"Envision Productions Inc.","Netflix","Tien-Lun Yeh","Ling-Hui Chen, Nancy Chen, Chih-Chi Fan, Chia-Hui Lin","Tammy Cheng","Peggy Tseng","Shen-Hao Wen","POINT (-122.3956409 37.7993521)","-122.3956409","37.7993521","Financial District/South Beach","3","2024/12/06 12:17:47 PM","2024/12/18 02:30:38 PM"
"It Came From Beneath the Sea","1955","Chrissy Field","With 23 miles of ladders and 300,000 rivets in each tower, the Golden Gate Bridge was the world's longest span when it opened in 1937.","Clover Productions","Columbia Pictures","Robert Gordon","George Worthing Yates","Kenneth Tobey","Faith Domergue","Donald Curtis","POINT (-122.4650165 37.8040257)","-122.4650165","37.8040257","Presidio","2","2024/12/06 12:17:47 PM","2024/12/18 02:30:38 PM"
"The Lineup","1958","War Memorial Opera House (401 Van Ness Avenue)","In 1945 the United Nations had its first conference at The War Memorial Opera House.","Pajemer Productions","Columbia Pictures","Don Siegel","Stirling Silliphant","Eli Wallach","Robert Keith","Richard Jaeckel","POINT (-122.4205316 37.7795597)","-122.4205316","37.7795597","Hayes Valley","5","2024/12/06 12:17:47 PM","2024/12/18 02:30:38 PM"
"My Big Fat Chinese Christmas","2022","Grant Avenue between Sacramento and California",,"Hongbao Productions","Hallmark Channel","Jennifer Liao","Blaine Chiappetta ,Marguerite Henry, Justine Wentzell-Chang","Shannon Chan-Kent","Shannon Kook","Tia Carrere","POINT (-122.4064031 37.7934259)","-122.4064031","37.7934259","Chinatown","3","2024/12/06 12:17:47 PM","2024/12/18 02:30:38 PM"
"Age of Adaline","2015","California @ Montgomery",,"Lionsgate / Sidney Kimmel Entertainment / Lakeshore Entertainment",,"Lee Toland Krieger","J. Mills Goodloe","Blake Lively","Harrison Ford","Ellen Burstyn","POINT (-122.4036859 37.7972387)","-122.4036859","37.7972387","Chinatown","3","2024/12/06 12:17:47 PM","2024/12/18 02:30:38 PM"
"Smile Again, Jenny Lee","2015","Hyatt Hotel (555 North Point St.)",,"Carlo Caldana/Marguery Films",,"Carlo Caldana","Linda Demetrick","Craig Tsuyumine","Puneet Prasad","Larry Kitagawa","POINT (-122.4160276 37.806191)","-122.4160276","37.806191","North Beach","3","2024/12/06 12:17:47 PM","2024/12/18 02:30:38 PM"
"Shit and Champagne","2020","1814 32nd Ave",,"Shaboom Boom, LLC",,"D'Arcy Drollinger","D'Arcy Drollinger","D'Arcy Drollinger","Matthew Martin","Steven LeMay","POINT (-122.4902199 37.7532947)","-122.4902199","37.7532947","Sunset/Parkside","4","2024/12/06 12:17:47 PM","2024/12/18 02:30:38 PM"
"Nash Bridges","2021","Far East Café, 631 Grant Avenue",,"Village NB Productions, LLC","USA Nework","Greg Beeman","Carlton Cuse, Bill Chais","Don Johnson","Cheech Marin","Joe Dinicol","POINT (-122.4063311 37.7929863)","-122.4063311","37.7929863","Chinatown","3","2024/12/06 12:17:47 PM","2024/12/18 02:30:38 PM"
"Sister Act 2: Back in the Habit","1993","CCSF Alemany Campus",,"Touchstone Pictures","Buena Vista Pictures","Bill Duke","Joseph Howard","Whoopi Goldberg","Maggie Smith",,"POINT (-122.4510797 37.72569)","-122.4510797","37.72569","West of Twin Peaks","7","2024/12/06 12:17:47 PM","2024/12/18 02:30:38 PM"
"Bullitt","1968","2700 Vallejo Street (Pacific Heights)",,"Warner Brothers / Seven Arts Seven Arts","Warner Brothers","Peter Yates","Alan R. Trustman","Steve McQueen","Jacqueline Bisset","Robert Vaughn","POINT (-122.4420204 37.7946105)","-122.4420204","37.7946105","Pacific Heights","2","2024/12/06 12:17:47 PM","2024/12/18 02:30:38 PM"
"Americana","2015","John Shelley Drive John McLaren Park",,"Sutro Films LLC",,"Zachary Shedd","Zachary Shedd","Kelli Garner","Jack Davenport","Peter Coyote","POINT (-122.4183155 37.7192874)","-122.4183155","37.7192874","McLaren Park","9","2024/12/06 12:17:47 PM","2024/12/18 02:30:38 PM"
"Time After Time","1979","Lombard & Fillmore Streets (Marina District)",,"Orion Pictures Corp.","Columbia Broadcasting System (CBS)","Nicholas Meyer","Karl Alexander","Malcolm McDowell","Mary Steenburgen","David Warner","POINT (-122.4360867 37.7999044)","-122.4360867","37.7999044","Marina","2","2024/12/06 12:17:47 PM","2024/12/18 02:30:38 PM"
"When We Rise","2017","City Hall","Exterior scenes include re-creating the White Night Riots on May 21, 1979 and the Gay Freedom March. Interior scenes included the wedding ceremony for Roma and Diane which had a few Board of Supervisors in the ceremony. The current Clerk for the Board of Supervisors played herself in one of the scenes filmed in the Chambers.","Film 49 Productions","Amercian Broadcasting Company","Gus Van Sant","Dustin Lance Black","Guy Pierce","Mary-Louise Parker","Michael Kenneth Williams","POINT (-122.4192417 37.779275)","-122.4192417","37.779275","Tenderloin","5","2024/12/06 12:17:47 PM","2024/12/18 02:30:38 PM"
"Super Pumped: The Battle for Uber","2022","650 Howard Street at New Montgomery, Gold Club",,"Possible Productions","Showtime","Allen Coulter, Daniel Gray Longino, John Dahl, Zetna Fuentes","Brian Koppelman & David Levien, Sarah Acosta, Stephen Schiff, Emily Hornsby, Safie M. Dirie, Beth Schacter","Joseph Gordon-Levitt","Kyle Chandler","Kerry Bishé","POINT (-122.3996934 37.7859444)","-122.3996934","37.7859444","Financial District/South Beach","6","2024/12/06 12:17:47 PM","2024/12/18 02:30:38 PM"
"My Big Fat Chinese Christmas","2022","Hyde Street between Filbert and Chestnut",,"Hongbao Productions","Hallmark Channel","Jennifer Liao","Blaine Chiappetta ,Marguerite Henry, Justine Wentzell-Chang","Shannon Chan-Kent","Shannon Kook","Tia Carrere","POINT (-122.4198731 37.8028179)","-122.4198731","37.8028179","Russian Hill","3","2024/12/06 12:17:47 PM","2024/12/18 02:30:38 PM"
"Quitters","2015","923 Vermont St.",,"Frederick & Ashbury, LLC.",,"Noah Pritzker","Noah Pritzker","Kara Hayward","Mira Sorvino","Saffron Burrows","POINT (-122.4037415 37.7579997)","-122.4037415","37.7579997","Potrero Hill","10","2024/12/06 12:17:47 PM","2024/12/18 02:30:38 PM"
"Venom: Let There Be Carnage","2021","238 Columbus",,"SM Film Productions","Sony Pictures","Andy Serkis","Kelly Marcel","Tom Hardy","Michelle Wiliams","Woody Harrelson","POINT (-122.4059214 37.797493)","-122.4059214","37.797493","North Beach","3","2024/12/06 12:17:47 PM","2024/12/18 02:30:38 PM"
"The Diary of a Teenage Girl","2015","Hamburger Haven",,"Diary the Movie, LLC","Sony Pictures Classics","Marielle Heller","Marielle Heller","Alexander Skarsgard","Kristen Wiig","Christopher Meloni","POINT (-122.4678211 37.7829633)","-122.4678211","37.7829633","Inner Richmond","1","2024/12/06 12:17:47 PM","2024/12/18 02:30:38 PM"
"Groove","2000","435 23rd Street at Illinois",,"415 Productions","Sony Pictures Classics","Greg Harrison","Greg Harrison","Chris Ferreira","Elizabeth Sun",,"POINT (-122.3845135 37.755198)","-122.3845135","37.755198","Potrero Hill","10","2024/12/06 12:17:47 PM","2024/12/18 02:30:38 PM"
"180","2011","555 Market St.",,"SPI Cinemas",,"Jayendra","Umarji Anuradha, Jayendra, Aarthi Sriram, & Suba","Siddarth","Nithya Menon","Priya Anand","POINT (-122.3998704 37.7899845)","-122.3998704","37.7899845","Financial District/South Beach","6","2024/12/06 12:17:47 PM","2024/12/18 02:30:38 PM"
"Ant-Man and the Wasp","2018","Pier 27",,"PYM Particles Productions II, LLC","Walt Disney Studios Motion Pictures","Peyton Reed","Chris McKenna","Paul Rudd","Evangeline Lilly","Michael Douglas","POINT (-122.4011224 37.8053489)","-122.4011224","37.8053489","Financial District/South Beach","3","2024/12/06 12:17:47 PM","2024/12/18 02:30:38 PM"
"A Taiwanese Tale of Two Cities","2018","2751 Mission St",,"Envision Productions Inc.","Netflix","Tien-Lun Yeh","Ling-Hui Chen, Nancy Chen, Chih-Chi Fan, Chia-Hui Lin","Tammy Cheng","Peggy Tseng","Shen-Hao Wen","POINT (-122.418291 37.7530804)","-122.418291","37.7530804","Mission","9","2024/12/06 12:17:47 PM","2024/12/18 02:30:38 PM"
"Ant-Man and the Wasp: Quantumania","2023","Geary Street between Market and Leavenworth",,"Pym Particles Production III LLC","Walt Disney Studios Motion Pictures","Peyton Reed","Jeff Loveness","Paul Rudd","Evangeline Lilly","Jonathan Majors","POINT (-122.4152873 37.7865402)","-122.4152873","37.7865402","Tenderloin","3","2024/12/06 12:17:47 PM","2024/12/18 02:30:38 PM"
"The Caine Mutiny","1954","The Embarcadero",,"Stanley Kramer Productions","Columbia Pictures","Edward Dmytryk","Stanley Roberts","Humphrey Bogart","Fred MacMurray","Jose Ferrer","POINT (-122.3976732 37.7992627)","-122.3976732","37.7992627","Financial District/South Beach","3","2024/12/06 12:17:47 PM","2024/12/18 02:30:38 PM"
"Women is Losers","2020","F Train Charter",,"Look at the Moon Pictures",,"Lissette Feliciano","Lissette Feliciano","Lorenza Izzo","Simu Liu","Liza Weil","POINT (-122.39484 37.77667)","-122.39484","37.77667","Mission Bay","6","2024/12/06 12:17:47 PM","2024/12/18 02:30:38 PM"
"Time After Time","1979","Ghirardelli Square (900 North Point Street, Fisherman's Wharf)","In 1893, chocolatier Domingo Ghirardelli bought an entire city block to house the headquarters of Ghirardelli Chocolates.","Orion Pictures Corp.","Columbia Broadcasting System (CBS)","Nicholas Meyer","Karl Alexander","Malcolm McDowell","Mary Steenburgen","David Warner","POINT (-122.4226335 37.8055598)","-122.4226335","37.8055598","Russian Hill","2","2024/12/06 12:17:47 PM","2024/12/18 02:30:38 PM"
"Chance- Season 1 ep102","2016","Westin St. Francis",,"TVM Productions","HULU","Lenny Abrahamson","Alexandra Cunningham","Hugh Laurie","Gretchen Mol","Ethan Suplee","POINT (-122.4087648 37.7876827)","-122.4087648","37.7876827","Tenderloin","3","2024/12/06 12:17:47 PM","2024/12/18 02:30:38 PM"
"Surface","2022","Taylor Street between Green and Broadway",,"Apple Studios, LLC","Apple TV+","Sam Miller, Kevin Rodney Sullivan, Jennifer Morrison, Tucker Gates","Veronica West, Erica L. Anderson,Tony Saltzman, Glenise Mullins, Leigh Ann Biety, Dan Lee West, Leigh Ann Biety & Raven Jackson, Martín Zimmerman","Gugu Mbatha-Raw","Oliver Jackson-Cohen","Ari Graynor","POINT (-122.4114139 37.7856667)","-122.4114139","37.7856667","Tenderloin","5","2024/12/06 12:17:47 PM","2024/12/18 02:30:38 PM"
"San Andreas","2015","TransAmerica Pyramid (600 Montgomery Street)",,"Upside Down Productions, Inc.","Warner Bros.","Brad Peyton","Allan Loeb","Dwayne Johnson",,,"POINT (-122.4027468 37.7950185)","-122.4027468","37.7950185","Chinatown","3","2024/12/06 12:17:47 PM","2024/12/18 02:30:38 PM"
"The Presidio","1988","Battery Street (The Embarcadero)",,"Paramount Pictures","Paramount Pictures","Peter Hyams","Larry Ferguson","Sean Connery","Mark Harmon","Meg Ryan","POINT (-122.4008359 37.7974666)","-122.4008359","37.7974666","Chinatown","3","2024/12/06 12:17:47 PM","2024/12/18 02:30:38 PM"
"San Andreas","2015","Battery Spencer",,"Upside Down Productions, Inc.","Warner Bros.","Brad Peyton","Allan Loeb","Dwayne Johnson",,,"POINT (-122.4816692 37.827761)","-122.4816692","37.827761",,,"2024/12/06 12:17:47 PM","2024/12/18 02:30:38 PM"
"Bullitt","1968","Taylor & Vallejo Streets (Russian Hill)",,"Warner Brothers / Seven Arts Seven Arts","Warner Brothers","Peter Yates","Alan R. Trustman","Steve McQueen","Jacqueline Bisset","Robert Vaughn","POINT (-122.4134592 37.7982745)","-122.4134592","37.7982745","Nob Hill","3","2024/12/06 12:17:47 PM","2024/12/18 02:30:38 PM"
"Tales of the City","2019","Valencia btwn Liberty and 21st St",,"Universal Television LLC","Netflix","Alan Poul, Silas Howard, Stacie Passon","Armistead Maupin, Lauren Morelli, Hansol Jung, Marcus Gardley","Laura Linney","Ellen Page","Murray Bartlett","POINT (-122.4207642 37.7519664)","-122.4207642","37.7519664","Mission","8","2024/12/06 12:17:47 PM","2024/12/18 02:30:38 PM"
"Greed","1924","Cliff House (1090 Point Lobos Avenue)","In 1887, the Cliff House was severely damaged when the schooner Parallel, abandoned and loaded with dynamite, ran aground on the rocks below.","Metro-Goldwyn-Mayer (MGM)","Metro-Goldwyn-Mayer (MGM)","Eric von Stroheim","Eric von Stroheim","Zasu Pitts","Gibson Gowland","Jean Hersholt","POINT (-122.5137962 37.7783123)","-122.5137962","37.7783123","Outer Richmond","1","2024/12/06 12:17:47 PM","2024/12/18 02:30:38 PM"
"Bicentennial Man","1999","City Hall","The dome of SF's City Hall is almost a foot taller than that of the US Capitol Building. In 1954, Joe DiMaggio and Marilyn Monroe married at the Beaux Arts-style building.","1492 Pictures","Buena Vista Pictures","Chris Columbus","Nicholas Kazan","Robin Williams",,,"POINT (-122.4192417 37.779275)","-122.4192417","37.779275","Tenderloin","5","2024/12/06 12:17:47 PM","2024/12/18 02:30:38 PM"
"Pal Joey","1957","Barbary Coast","The Barbary Coast was a red-light district that was largely destroyed in the 1906 earthquake. Though some of the establishments were rebuilt after the earthquake, an anti-vice campaign put the establishments out of business.","Columbia Pictures Corporation","Columbia Pictures","George Sidney","Dorothy Kingsley","Rita Hayworth","Frank Sinatra","Kim Novak","POINT (-122.4078009 37.7819145)","-122.4078009","37.7819145","South of Market","6","2024/12/06 12:17:47 PM","2024/12/18 02:30:38 PM"
"The Internship","2013","Epic Roasthouse",,"Twentieth Century Fox Film Corporation","Twentieth Century Fox Film Corporation","Shawn Levy","Vince Vaughn","Vince Vaughn","Owen Wilson","Rose Byrne","POINT (-122.3894682 37.7908723)","-122.3894682","37.7908723","Financial District/South Beach","6","2024/12/06 12:17:47 PM","2024/12/18 02:30:38 PM"
"Sudden Impact","1983","Mt. Davidson","Mt. Davidson is highest point in San Francisco (938 feet).","Warner Bros. Pictures","Warner Bros. Pictures","Clint Eastwood","Harry Julian Fink","Clint Eastwood","Sondra Locke","Pat Hingle","POINT (-122.4533333 37.7383333)","-122.4533333","37.7383333","West of Twin Peaks","7","2024/12/06 12:17:47 PM","2024/12/18 02:30:38 PM"
"Chance- Season 1 ep103","2016","Forrest Hill Muni Station","A Muni station agent played himself in this scene.","TVM Productions","HULU","Michael Lehmann","Kem Nunn","Hugh Laurie","Gretchen Mol","Ethan Suplee","POINT (-122.4591718 37.7480485)","-122.4591718","37.7480485","West of Twin Peaks","7","2024/12/06 12:17:47 PM","2024/12/18 02:30:38 PM"
"Invasion of the Body Snatchers","1978","Ramada Plaza Hotel Downtown (1231 Market Street, Civic Center)",,"Solofilm","United Artists","Philip Kaufman","Jack Finney","Donald Sutherland","Jeff Goldblum","Brooke Adams","POINT (-122.4150923 37.7781588)","-122.4150923","37.7781588","South of Market","6","2024/12/06 12:17:47 PM","2024/12/18 02:30:38 PM"
"Chance Season 2","2017","Heron @ Berwick (off 8th and Harrison St)",,"TVM Productions Inc.","Hulu","Rozann Dawson","Alexandra Cunningham","Hugh Laurie","Greta Lee","Ethan Suplee",,,,,,"2024/12/06 12:17:47 PM","2024/12/18 02:30:38 PM"
"Etruscan Smile","2017","Pier 39 San Francisco",,"Po Valley Productions, LLC","TBD","Oded Binnun/ Michel Brezis","Sarah Bellwood, Michal Lali Kagan, Michael McGowan Amital Stern, Jose Luis Sampedro","Brian Cox","Roseanne Arquette","Thora Birch","POINT (-122.409821 37.808673)","-122.409821","37.808673","North Beach","3","2024/12/06 12:17:47 PM","2024/12/18 02:30:38 PM"
"Looking Season 2 ep 204","2015","Urban Flowers, 4029 18th Street",,"Mission Street Productions, LLC","HBO","Andrew Haigh","Michael Lannan","Jonathan Groff","Frankie Alvarez","Murray Bartlett","POINT (-122.4334023 37.7608846)","-122.4334023","37.7608846","Castro/Upper Market","8","2024/12/06 12:17:47 PM","2024/12/18 02:30:38 PM"
"DEVS","2020","Brannan btwn 3rd and 6th St",,"Minim Productions","FX Network","Alex Garland","Alex Garland","Sonoya Mizuno","Nick Offerman","Jin Ha","POINT (-122.3962823 37.7789746)","-122.3962823","37.7789746","South of Market","6","2024/12/06 12:17:47 PM","2024/12/18 02:30:38 PM"
"Getting Even with Dad","1994","Candlestick Park (602 Jamestown Ave.)","Then Vice President Richard Nixon threw out the first pitch when Candlestick opened in 1960. On August 29, 1966, The Beatles played their last concert for paying fans at Candlestick Park.","Metro-Goldwyn-Mayer (MGM)","Metro-Goldwyn-Mayer (MGM)","Howard Deutch","Tom S. Parker","Macaulay Culkin","Ted Danson",,"POINT (-122.3857003 37.7135483)","-122.3857003","37.7135483","Bayview Hunters Point","10","2024/12/06 12:17:47 PM","2024/12/18 02:30:38 PM"
"Ant-Man and the Wasp","2018","Russian Hill","VFX and B-roll Shots","PYM Particles Productions II, LLC","Walt Disney Studios Motion Pictures","Peyton Reed","Chris McKenna","Paul Rudd","Evangeline Lilly","Michael Douglas","POINT (-122.4192681 37.8001413)","-122.4192681","37.8001413","Russian Hill","3","2024/12/06 12:17:47 PM","2024/12/18 02:30:38 PM"
"Sense8","2015","20th","Driving shots","Unpronounceable Productions, LLC","Netflix","The Wachowskis","The Wachowskis","Jamie Clayton",,,"POINT (-122.4116 37.7590974)","-122.4116","37.7590974","Mission","9","2024/12/06 12:17:47 PM","2024/12/18 02:30:38 PM"
"Chance - Season 1 Pilot","2016","Jonell's Bar, 401 Ellis",,"TVM Productions","HULU","Lenny Abrahamson","Alexandra Cunningham and Kem Nunn","Hugh Laurie","Gretchen Mol","Ethan Suplee","POINT (-122.4129143 37.7847543)","-122.4129143","37.7847543","Tenderloin","5","2024/12/06 12:17:47 PM","2024/12/18 02:30:38 PM"
"Freebie and the Bean","1974","Twin Peaks","The 2nd highest point in SF after Mt. Davidson, Twin Peaks sit at the geographic center of SF. The native Ohlone people called the area ""called the area “Los Pechos de la Chola” or ""Breasts of the Indian Maiden,"" but in the 19th Century when America took over the area, it was renamed ""Twin Peaks"".","Warner Bros. Pictures","American Broadcasting Company (ABC)","Richard Rush","Robert Kaufman","Alan Arkin","James Caan","Loretta Swit","POINT (-122.4476845 37.7544066)","-122.4476845","37.7544066","Twin Peaks","7","2024/12/06 12:17:47 PM","2024/12/18 02:30:38 PM"
"The OA Part II","2019","SF War Memorial Opera House",,"Lunar Mining LLC","Netflix","Zal Batmanglij","Zal Batmanglij, Brit Marling","Brit Marling","Emory Cohen","Patrick Gibson","POINT (-122.4203163 37.7784816)","-122.4203163","37.7784816","Hayes Valley","5","2024/12/06 12:17:47 PM","2024/12/18 02:30:38 PM"
"Shang-Chi and the Legend of the Ten Rings","2021","Noe between Alvarado and Liberty",,"Freelance Restorations LLC","Disney/Marvel","Destin Daniel Cretton","Dave Callaham, Destin Daniel Cretton, Andrew Lanham","Simu Liu","Tony Chiu-Wai Leung","Awkwafina","POINT (-122.4384961 37.7535011)","-122.4384961","37.7535011","Noe Valley","8","2024/12/06 12:17:47 PM","2024/12/18 02:30:38 PM"
"Always Be My Maybe","2019","Palace of Fine Arts (3301 Lyon Street)",,"Isla Productions, LLC","Netflix","Nahnatchka Khan","Michael Golamco, Randall Park, Ali Wong","Ali Wong","Randall Park","Keanu Reeves","POINT (-122.4491285 37.8026694)","-122.4491285","37.8026694","Marina","2","2024/12/06 12:17:47 PM","2024/12/18 02:30:38 PM"
"Big Eyes","2014","Nobles Alley",,"Blink & Wink Productions","Weinstein Company","Tim Burton","Scott Alexander","Amy Adams","Krysten Ritter","Christoph Waltz","POINT (-122.4074482 37.8009836)","-122.4074482","37.8009836","North Beach","3","2024/12/06 12:17:47 PM","2024/12/18 02:30:38 PM"
"So I Married an Axe Murderer","1993","Rocco's Corner (Columbus Street)",,"TriStar Pictures","TriStar Pictures","Thomas Schlamme","Robbie Fox","Mike Myers","Nancy Travis",,"POINT (-122.4147089 37.8032738)","-122.4147089","37.8032738","Russian Hill","3","2024/12/06 12:17:47 PM","2024/12/18 02:30:38 PM"
"Godzilla","2014","Post & Jones St.",,"Nautilus Productions, LLC","Warner Bros. Pictures","Gareth Edwards","Max Borenstein","Aaron Taylor-Johnson","Elizabeth Olsen","Bryan Cranston","POINT (-122.413373 37.7876733)","-122.413373","37.7876733","Nob Hill","3","2024/12/06 12:17:47 PM","2024/12/18 02:30:38 PM"
"Sudden Impact","1983","McDonald's Restaurant (701 3rd Street, SOMA)",,"Warner Bros. Pictures","Warner Bros. Pictures","Clint Eastwood","Harry Julian Fink","Clint Eastwood","Sondra Locke","Pat Hingle","POINT (-122.3923165 37.7788012)","-122.3923165","37.7788012","Mission Bay","6","2024/12/06 12:17:47 PM","2024/12/18 02:30:38 PM"
"Edtv","1999","Mario's Bohemian Cigar Store (Washington Square)",,"Imagine Entertainment","MCA / Universal Pictures","Ron Howard","Lowell Ganz","Matthew McConaughey","Jenna Elfman",,"POINT (-122.4098155 37.8002479)","-122.4098155","37.8002479","North Beach","3","2024/12/06 12:17:47 PM","2024/12/18 02:30:38 PM"
"Nash Bridges","2021","Davis Street between",,"Village NB Productions, LLC","USA Nework","Greg Beeman","Carlton Cuse, Bill Chais","Don Johnson","Cheech Marin","Joe Dinicol","POINT (-122.396646 37.7903624)","-122.396646","37.7903624","Financial District/South Beach","6","2024/12/06 12:17:47 PM","2024/12/18 02:30:38 PM"
"Etruscan Smile","2017","Andronico's, 1200 Irving Street",,"Po Valley Productions, LLC","TBD","Oded Binnun/ Michel Brezis","Sarah Bellwood, Michal Lali Kagan, Michael McGowan Amital Stern, Jose Luis Sampedro","Brian Cox","Roseanne Arquette","Thora Birch","POINT (-122.471173 37.7641418)","-122.471173","37.7641418","Inner Sunset","7","2024/12/06 12:17:47 PM","2024/12/18 02:30:38 PM"
"Edtv","1999","Castro Theatre (429 Castro Street, The Castro)","The original Castro Theatre was built in 1910, a few doors down from the current theatre. The original theatre was converted into retail space, and the current theatre was built in the 1920s.","Imagine Entertainment","MCA / Universal Pictures","Ron Howard","Lowell Ganz","Matthew McConaughey","Jenna Elfman",,"POINT (-122.4347365 37.7619917)","-122.4347365","37.7619917","Castro/Upper Market","8","2024/12/06 12:17:47 PM","2024/12/18 02:30:38 PM"
"Chance- Season 1 ep109","2016","2 Rowland",,"TVM Productions","HULU","Sara Gran and Pete Begler","Dan Attias","Hugh Laurie","Gretchen Mol","Ethan Suplee","POINT (-122.4044379 37.7977448)","-122.4044379","37.7977448","North Beach","3","2024/12/06 12:17:47 PM","2024/12/18 02:30:38 PM"
"A Taiwanese Tale of Two Cities","2018","Sutter St at Taylor St",,"Envision Productions Inc.","Netflix","Tien-Lun Yeh","Ling-Hui Chen, Nancy Chen, Chih-Chi Fan, Chia-Hui Lin","Tammy Cheng","Peggy Tseng","Shen-Hao Wen","POINT (-122.4119166 37.7888192)","-122.4119166","37.7888192","Nob Hill","3","2024/12/06 12:17:47 PM","2024/12/18 02:30:38 PM"
"The Woman In Red","1984","Brocklebank Apartments (1000 Mason Street)",,"Orion Pictures Corp.","MGM Home Entertainment","Gene Wilder","Jean Loup Dabadie & Yves Robert","Gene Wilder","Charles Grodin",,"POINT (-122.4106579 37.7931077)","-122.4106579","37.7931077","Nob Hill","3","2024/12/06 12:17:47 PM","2024/12/18 02:30:38 PM"
"The Princess Diaries","2001","2601 Lyon Street",,"Walt Disney Pictures","Buena Vista Pictures","Garry Marshall","Gina Wendkos","Julie Andrews","Anne Hathway",,"POINT (-122.4470113 37.7947425)","-122.4470113","37.7947425","Presidio","2","2024/12/06 12:17:47 PM","2024/12/18 02:30:38 PM"
"Alcatraz","2012","Broadway from Mason to Taylor",,"Bonanza Productions Inc.","Warner Bros. Television","J.J. Abrams","Steven Lilien","Sarah Jones","Jorge Garcia",,"POINT (-122.4120597 37.7974059)","-122.4120597","37.7974059","Nob Hill","3","2024/12/06 12:17:47 PM","2024/12/18 02:30:38 PM"
"The Diary of a Teenage Girl","2015","Yerba Buena Island",,"Diary the Movie, LLC","Sony Pictures Classics","Marielle Heller","Marielle Heller","Alexander Skarsgard","Kristen Wiig","Christopher Meloni","POINT (-122.3668348 37.8108709)","-122.3668348","37.8108709","Treasure Island","6","2024/12/06 12:17:47 PM","2024/12/18 02:30:38 PM"
"Foul Play","1978","Octavia & Hayes Streets (Hayes Valley)",,"Paramount Pictures","Paramount Pictures","Colin Higgins","Colin Higgins","Goldie Hawn","Chevy Chase","Burgess Meredith","POINT (-122.4246518 37.7766803)","-122.4246518","37.7766803","Hayes Valley","5","2024/12/06 12:17:47 PM","2024/12/18 02:30:38 PM"
"Goliath- Season 4","2021","Union at Jasper Place",,"Picrow, Inc.","Amazon Studios","Billy Bob Thornton, Lawrence Trilling, Derek Johansen","David E. Kelley, Jonathan Shapiro","Billy Bob Thornton","Nina Arianda","Tania Raymonde","POINT (-122.4083888 37.8005521)","-122.4083888","37.8005521","North Beach","3","2024/12/06 12:17:47 PM","2024/12/18 02:30:38 PM"
"Nine Months","1995","San Francisco General Hospital Medical Center (1001 Potrero Avenue, Potrero Hill)","SF General Hospital is the only Level I Trauma Center serving San Francisco and northern San Mateo County.","1492 Pictures","Twentieth Century Fox Film Corp.","Chris Columbus","Chris Columbus","Hugh Grant","Julianne Moore","Robin Williams","POINT (-122.405629 37.7555919)","-122.405629","37.7555919","Mission","10","2024/12/06 12:17:47 PM","2024/12/18 02:30:38 PM"
"Freebie and the Bean","1974","Embarcadero Freeway",,"Warner Bros. Pictures","American Broadcasting Company (ABC)","Richard Rush","Robert Kaufman","Alan Arkin","James Caan","Loretta Swit","POINT (-122.3976732 37.7992627)","-122.3976732","37.7992627","Financial District/South Beach","3","2024/12/06 12:17:47 PM","2024/12/18 02:30:38 PM"
"Magnum Force","1973","Lefty O' Doul Drawbridge/ 3rd Street Bridge (3rd Street, China Basin)","This is SF's only drawbridge, and was named after Francis Joseph ""Lefty"" O'Doul, a local baseball hero.","The Malpaso Company","Warner Bros. Pictures","Ted Post","John Milius","Clint Eastwood","Hal Holbrook","Mitchell Ryan","POINT (-122.3902572 37.7768525)","-122.3902572","37.7768525","Mission Bay","6","2024/12/06 12:17:47 PM","2024/12/18 02:30:38 PM"
"The Diary of a Teenage Girl","2015","Ocean Beach at Point Lobos",,"Diary the Movie, LLC","Sony Pictures Classics","Marielle Heller","Marielle Heller","Alexander Skarsgard","Kristen Wiig","Christopher Meloni","POINT (-122.510734 37.7593921)","-122.510734","37.7593921","Sunset/Parkside","4","2024/12/06 12:17:47 PM","2024/12/18 02:30:38 PM"
"Sense8","2015","22nd St.","Driving shots","Unpronounceable Productions, LLC","Netflix","The Wachowskis","The Wachowskis","Jamie Clayton",,,"POINT (-122.4112983 37.7558999)","-122.4112983","37.7558999","Mission","9","2024/12/06 12:17:47 PM","2024/12/18 02:30:38 PM"
"The Bachelor","1999","Columbus Avenue at Green & Stockton",,"George Street Pictures","New Line Cinema","Gary Sinyor","Steve Cohen","Chris O'Donnell","Renee Zellweger",,"POINT (-122.40905 37.799277)","-122.40905","37.799277","Chinatown","3","2024/12/06 12:17:47 PM","2024/12/18 02:30:38 PM"
"Serial","1980","Ferry Building","Every hour and half-hour, the clock bell atop the Ferry Building chimes portions of the Westminster Quarters.","Paramount Pictures","Paramount Pictures","Bill Persky","Rich Eustis","Martin Mull","Tuesday Weld",,"POINT (-122.3936136 37.7954425)","-122.3936136","37.7954425","Financial District/South Beach","3","2024/12/06 12:17:47 PM","2024/12/18 02:30:38 PM"
"Junior","1994","Chinatown Gate","Designed in 1970, the Chinatown Gate (aka the Dragon Gate) is based on ceremonial gates found in Chinese villages.","Northern Lights Entertainment","Universal Pictures","Ivan Reitman","Kevin Wade","Arnold Schwarzenegger","Danny DeVito","Emma Thompson","POINT (-122.408083 37.793978)","-122.408083","37.793978","Chinatown","3","2024/12/06 12:17:47 PM","2024/12/18 02:30:38 PM"
"Tales of the City","2019","North Beach",,"Universal Television LLC","Netflix","Alan Poul, Silas Howard, Stacie Passon","Armistead Maupin, Lauren Morelli, Hansol Jung, Marcus Gardley","Laura Linney","Ellen Page","Murray Bartlett","POINT (-122.4089071 37.7994612)","-122.4089071","37.7994612","North Beach","3","2024/12/06 12:17:47 PM","2024/12/18 02:30:38 PM"
"Looking","2014","2866 24th St.",,"Mission Street Productions, LLC","Home Box Office (HBO)","Andrew Haigh","Michael Lannan","Jonathan Groff","Frankie J. Alvarez","Murray Bartlett","POINT (-122.4097206 37.7529677)","-122.4097206","37.7529677","Mission","9","2024/12/06 12:17:47 PM","2024/12/18 02:30:38 PM"
"The Game","1997","City Club (155 Sansome Street)",,"Polygram Filmed Entertainment","Polygram Filmed Entertainment","David Fincher","John Brancato","Michael Douglas","Sean Penn","Deborah Kara Unger","POINT (-122.4012644 37.7916591)","-122.4012644","37.7916591","Financial District/South Beach","3","2024/12/06 12:17:47 PM","2024/12/18 02:30:38 PM"
"Invasion of the Body Snatchers","1978","720 Steiner Street (Hayes Valley)",,"Solofilm","United Artists","Philip Kaufman","Jack Finney","Donald Sutherland","Jeff Goldblum","Brooke Adams","POINT (-122.4327956 37.7763888)","-122.4327956","37.7763888","Hayes Valley","5","2024/12/06 12:17:47 PM","2024/12/18 02:30:38 PM"
"Steve Jobs","2015","Powell St. from California St. to Sutter St.",,"RDF Productions LLC","Universal Pictures","Danny Boyle","Aaron Sorkin","Michael Fassbender","Kate Winslet","Seth Rogen","POINT (-122.4093236 37.7920732)","-122.4093236","37.7920732","Nob Hill","3","2024/12/06 12:17:47 PM","2024/12/18 02:30:38 PM"
"Hulk","2003","Golden Gate Bridge","With 23 miles of ladders and 300,000 rivets in each tower, the Golden Gate Bridge was the world's longest span when it opened in 1937.","Universal Pictures","Universal Pictures","Ang Lee","Stan Lee","Eric Bana","Jennifer Connelly",,"POINT (-122.4785598 37.8199109)","-122.4785598","37.8199109",,,"2024/12/06 12:17:47 PM","2024/12/18 02:30:38 PM"
"Hulk","2003","Telegraph Hill","Largely untouched by the 1906 earthquake, Telegraph Hill has the most pre-1870 buildings in the city.","Universal Pictures","Universal Pictures","Ang Lee","Stan Lee","Eric Bana","Jennifer Connelly",,"POINT (-122.4052612 37.8009425)","-122.4052612","37.8009425","North Beach","3","2024/12/06 12:17:47 PM","2024/12/18 02:30:38 PM"
"Super Pumped: The Battle for Uber","2022","Harrison Street between Spear and Embarcadero",,"Possible Productions","Showtime","Allen Coulter, Daniel Gray Longino, John Dahl, Zetna Fuentes","Brian Koppelman & David Levien, Sarah Acosta, Stephen Schiff, Emily Hornsby, Safie M. Dirie, Beth Schacter","Joseph Gordon-Levitt","Kyle Chandler","Kerry Bishé","POINT (-122.3888455 37.7898628)","-122.3888455","37.7898628","Financial District/South Beach","6","2024/12/06 12:17:47 PM","2024/12/18 02:30:38 PM"
"Murder in the First, Season 3","2016","Patricia's Green",,"Turner North Center Productions","Turner Network Television (TNT)","Steven Bochcho","Eric Lodal","Taye Diggs","Kathleen Robertson","Ian Anthony Dale","POINT (-122.4243795 37.775961)","-122.4243795","37.775961","Hayes Valley","5","2024/12/06 12:17:47 PM","2024/12/18 02:30:38 PM"
"The Conversation","1974","Union Square","During the Civil War, pro-Union rallies were held in the Square, and thus the area was called ""Union Square"".","American Zoetrope","Paramount Pictures","Francis Ford Coppola","Francis Ford Coppola","Gene Hackman","John Cazale","Allen Garfield","POINT (-122.4066183 37.787552)","-122.4066183","37.787552","Financial District/South Beach","3","2024/12/06 12:17:47 PM","2024/12/18 02:30:38 PM"
"Mrs. Doubtfire","1993","516 Green Street",,"Twentieth Century Fox Film Corporation","Twentieth Century Fox Film Corporation","Chris Columbus","Randi Mayem Singer","Robin Williams","Sally Field","Pierce Brosnan","POINT (-122.4078056 37.7998378)","-122.4078056","37.7998378","North Beach","3","2024/12/06 12:17:47 PM","2024/12/18 02:30:38 PM"
"Shang-Chi and the Legend of the Ten Rings","2021","Post between Van Ness and Kearny",,"Freelance Restorations LLC","Disney/Marvel","Destin Daniel Cretton","Dave Callaham, Destin Daniel Cretton, Andrew Lanham","Simu Liu","Tony Chiu-Wai Leung","Awkwafina","POINT (-122.416734 37.7541168)","-122.416734","37.7541168","Mission","9","2024/12/06 12:17:47 PM","2024/12/18 02:30:38 PM"
"The Phone/Jexi","2019","Mash Transit - 284 Sanchez St",,"CBS Films Inc.","Lionsgate","Jon Lucas, Scott Moore","Jon Lucas, Scott Moore","Adam Devine","Alexandra Shipp","Michael Pena",,,,,,"2024/12/06 12:17:47 PM","2024/12/18 02:30:38 PM"
"Ant-Man and the Wasp","2018","Jones St btwn Sacramento and Pine","Stunt scene involving car flip","PYM Particles Productions II, LLC","Walt Disney Studios Motion Pictures","Peyton Reed","Chris McKenna","Paul Rudd","Evangeline Lilly","Michael Douglas","POINT (-122.412987 37.787177)","-122.412987","37.787177","Tenderloin","3","2024/12/06 12:17:47 PM","2024/12/18 02:30:38 PM"
"Budding Prospects, Pilot","2017","3050 24th Street",,"Picrow Streaming Inc.","Amazon","Terry Zwigoff","Melissa Axelrod, T. C. Boyle (based on the book by)","Adam Rose","Will Sasso","Joel David Moore","POINT (-122.4132118 37.7527686)","-122.4132118","37.7527686","Mission","9","2024/12/06 12:17:47 PM","2024/12/18 02:30:38 PM"
"The Conversation","1974","One Embarcadero Center (Financial District)",,"American Zoetrope","Paramount Pictures","Francis Ford Coppola","Francis Ford Coppola","Gene Hackman","John Cazale","Allen Garfield","POINT (-122.3998262 37.7946507)","-122.3998262","37.7946507","Financial District/South Beach","3","2024/12/06 12:17:47 PM","2024/12/18 02:30:38 PM"
"Chance- Season 1 ep104","2016","1018 Tennessee St.",,"TVM Productions","HULU","Carl Franklin","Peter Elkoff","Hugh Laurie","Gretchen Mol","Ethan Suplee","POINT (-122.3896656 37.7589556)","-122.3896656","37.7589556","Potrero Hill","10","2024/12/06 12:17:47 PM","2024/12/18 02:30:38 PM"
"The Bachelor","1999","Steinhart Aquarium (California Academy of Sciences, Golden Gate Park)","The Steinhart Aquarium is home to over 38,000 animals, which represent more than 900 species.","George Street Pictures","New Line Cinema","Gary Sinyor","Steve Cohen","Chris O'Donnell","Renee Zellweger",,"POINT (-122.4661345 37.7695812)","-122.4661345","37.7695812","Golden Gate Park","7","2024/12/06 12:17:47 PM","2024/12/18 02:30:38 PM"
"DEVS","2020","Coit Tower",,"Minim Productions","FX Network","Alex Garland","Alex Garland","Sonoya Mizuno","Nick Offerman","Jin Ha","POINT (-122.4058222 37.8023949)","-122.4058222","37.8023949","North Beach","3","2024/12/06 12:17:47 PM","2024/12/18 02:30:38 PM"
"Time After Time","1979","United Nations Plaza (Civic Center)","United Nations Plaza was built in 1975 and across its walkways are white lines into which the preamble to the preamble of the UN charter is carved.","Orion Pictures Corp.","Columbia Broadcasting System (CBS)","Nicholas Meyer","Karl Alexander","Malcolm McDowell","Mary Steenburgen","David Warner","POINT (-122.4147491 37.7795066)","-122.4147491","37.7795066","Tenderloin","5","2024/12/06 12:17:47 PM","2024/12/18 02:30:38 PM"
"Smile Again, Jenny Lee","2015","E Tutto Qua Restaurant (270 Columbus St.)",,"Carlo Caldana/Marguery Films",,"Carlo Caldana","Linda Demetrick","Craig Tsuyumine","Puneet Prasad","Larry Kitagawa","POINT (-122.4062859 37.7977712)","-122.4062859","37.7977712","North Beach","3","2024/12/06 12:17:47 PM","2024/12/18 02:30:38 PM"
"Nash Bridges","2021","Pier 9, at Autodesk",,"Village NB Productions, LLC","USA Nework","Greg Beeman","Carlton Cuse, Bill Chais","Don Johnson","Cheech Marin","Joe Dinicol","POINT (-122.3974229 37.8001877)","-122.3974229","37.8001877","Financial District/South Beach","3","2024/12/06 12:17:47 PM","2024/12/18 02:30:38 PM"
"50 First Dates","2004","Rainforest Café (145 Jefferson Street)",,"Columbia Pictures Corporation","Columbia Pictures","Peter Segal","George Wing","Adam Sandler","Drew Barrymore",,"POINT (-122.4146499 37.8080677)","-122.4146499","37.8080677","North Beach","3","2024/12/06 12:17:47 PM","2024/12/18 02:30:38 PM"
"Chance - Season 1 Pilot","2016","60 Leavenworth St.",,"TVM Productions","HULU","Lenny Abrahamson","Alexandra Cunningham and Kem Nunn","Hugh Laurie","Gretchen Mol","Ethan Suplee","POINT (-122.4135414 37.7812278)","-122.4135414","37.7812278","Tenderloin","5","2024/12/06 12:17:47 PM","2024/12/18 02:30:38 PM"
"Chance- Season 1 ep103","2016","San Bruno and Alameda",,"TVM Productions","HULU","Michael Lehmann","Kem Nunn","Hugh Laurie","Gretchen Mol","Ethan Suplee","POINT (-122.4058947 37.7684814)","-122.4058947","37.7684814","Mission","6","2024/12/06 12:17:47 PM","2024/12/18 02:30:38 PM"
"Woman on the Run","1950","772 Commercial Street at Kearney","Called ""Man Loh's Oriental Roof Garden"" in the film.","Fidelity Pictures Corporation","Universal Pictures","Norman Foster","Norman Foster","Ann Sheridan","Dennis O'Keefe","Robert Keith","POINT (-122.4058703 37.7940098)","-122.4058703","37.7940098","Chinatown","3","2024/12/06 12:17:47 PM","2024/12/18 02:30:38 PM"
"Ant-Man and the Wasp","2018","490 Geary St","VFX Plate Shots","PYM Particles Productions II, LLC","Walt Disney Studios Motion Pictures","Peyton Reed","Chris McKenna","Paul Rudd","Evangeline Lilly","Michael Douglas","POINT (-122.4113976 37.7871218)","-122.4113976","37.7871218","Tenderloin","3","2024/12/06 12:17:47 PM","2024/12/18 02:30:38 PM"
"Looking Season 2 ep 206","2015","1890 Clay Street",,"Mission Street Productions, LLC","HBO","Andrew Haigh","Michael Lannan","Jonathan Groff","Frankie Alvarez","Murray Bartlett","POINT (-122.4238729 37.7922528)","-122.4238729","37.7922528","Pacific Heights","2","2024/12/06 12:17:47 PM","2024/12/18 02:30:38 PM"
"Chance Season 2","2017","Embarcadero at Lombard St.",,"TVM Productions Inc.","Hulu","Rozann Dawson","Alexandra Cunningham","Hugh Laurie","Greta Lee","Ethan Suplee","POINT (-122.4022741 37.8041851)","-122.4022741","37.8041851","Financial District/South Beach","3","2024/12/06 12:17:47 PM","2024/12/18 02:30:38 PM"
"Shit and Champagne","2020","57 Taylor St",,"Shaboom Boom, LLC",,"D'Arcy Drollinger","D'Arcy Drollinger","D'Arcy Drollinger","Matthew Martin","Steven LeMay","POINT (-122.4108571 37.7829286)","-122.4108571","37.7829286","Tenderloin","5","2024/12/06 12:17:47 PM","2024/12/18 02:30:38 PM"
"D.O.A","1950","Powell & California Streets",,"Cardinal Pictures","United Artists","Rudolph Mate","Russell Rouse","Edmond O'Brien","Pamela Britton","Luther Adler","POINT (-122.4091939 37.7920536)","-122.4091939","37.7920536","Nob Hill","3","2024/12/06 12:17:47 PM","2024/12/18 02:30:38 PM"
"Need For Speed","2014","Mason St from Pine to Sacramento",,"Need For Speed Productions, LLC","Walt Disney Studios Motion Pictures","Scott Waugh","George Gatins","Aaron Paul","Dominic Cooper","Imogen Poots",,,,,,"2024/12/06 12:17:47 PM","2024/12/18 02:30:38 PM"
"Love & Taxes","2014","The Marsh Theatre (1062 Valencia Street)",,"Bad Company Films",,"Jacob Kornbluth","Jacob Kornbluth","Jacob Kornbluth",,,"POINT (-122.421353 37.7558511)","-122.421353","37.7558511","Mission","9","2024/12/06 12:17:47 PM","2024/12/18 02:30:38 PM"
"Chance - Season 1 Pilot","2016","Warren's Antiques, 375 9th St.",,"TVM Productions","HULU","Lenny Abrahamson","Alexandra Cunningham and Kem Nunn","Hugh Laurie","Gretchen Mol","Ethan Suplee","POINT (-122.4102389 37.7730283)","-122.4102389","37.7730283","South of Market","6","2024/12/06 12:17:47 PM","2024/12/18 02:30:38 PM"
"Love & Taxes","2014","20 Hill Street",,"Bad Company Films",,"Jacob Kornbluth","Jacob Kornbluth","Jacob Kornbluth",,,"POINT (-122.42204 37.7562898)","-122.42204","37.7562898","Mission","9","2024/12/06 12:17:47 PM","2024/12/18 02:30:38 PM"
"The Maltese Falcon","1941","Burritt Alley (Off Bush Street, between Powell and Stockton Streets)",,"Warner Bros. Pictures","Warner Bros. Pictures","John Huston","John Huston","Humphrey Bogart","Mary Astor","Gladys George","POINT (-122.4079258 37.7940728)","-122.4079258","37.7940728","Chinatown","3","2024/12/06 12:17:47 PM","2024/12/18 02:30:38 PM"
"George of the Jungle","1997","755 Vallejo Street",,"Walt Disney Pictures","Buena Vista Pictures","Sam Weisman","Jay Ward","Brendan Fraser","Leslie Mann",,"POINT (-122.4097554 37.7984704)","-122.4097554","37.7984704","Chinatown","3","2024/12/06 12:17:47 PM","2024/12/18 02:30:38 PM"
"By Hook or By Crook","2001","Department of Public Health (101 Grove Street at Polk, Civic Center)",,"Steakhaus Productions","Artistic License","Harriet Dodge & Silas Howard","Harriet Dodge & Silas Howard","Silas Howard",,,"POINT (-122.4184673 37.7782978)","-122.4184673","37.7782978","Tenderloin","5","2024/12/06 12:17:47 PM","2024/12/18 02:30:38 PM"
"Sense8 - Season 2","2016","The Castro Theater, 429 Castro St.","The theater has an organ which is played before every film showing.","Unpronounceable Productions, LLC","Netflix","Wachowski Siblings","J. Michael Straczynski, Wachowiski Siblings","Jamie Clayton","Daryl Hannah","Naveen Andrews","POINT (-122.4347365 37.7619917)","-122.4347365","37.7619917","Castro/Upper Market","8","2024/12/06 12:17:47 PM","2024/12/18 02:30:38 PM"
"Bitter Melon","2018","145 9th St",,"Bitter Melon Film LLC/Mammoth Pictures","ABS-CBN, Gravitas Ventures","H.P. Mendoza","H.P. Mendoza","Jon Norman Schneider","Patrick Epino","Brian Rivera","POINT (-122.4138534 37.7758595)","-122.4138534","37.7758595","South of Market","6","2024/12/06 12:17:47 PM","2024/12/18 02:30:38 PM"
"I’m A Virgo","2023","Portsmouth Square Park",,"Bing Bang Productions Inc","Prime Video","Boots Riley","Boots Riley","Jharrel Jerome","Mike Epps","Carmen Ejogo","POINT (-122.4052341 37.7948896)","-122.4052341","37.7948896","Chinatown","3","2024/12/06 12:17:47 PM","2024/12/18 02:30:38 PM"
"Final Analysis","1992","Presidio, Golden Gate National Recreation Area","In 1776, Spain made the Presidio a fortified area. The area was then given to Mexico, but then given to the US in 1848. The 1994 demilitarization of the area in 1994 marked the end of its 219 years of military use.","Warner Bros. Pictures","Warner Bros. Pictures","Phil Joanou","Robert Berger","Richard Gere","Kim Basinger",,"POINT (-122.4810057 37.7923841)","-122.4810057","37.7923841","Presidio","2","2024/12/06 12:17:47 PM","2024/12/18 02:30:38 PM"
"Terminator - Genisys","2015","California between Leavenworth and Powell",,"T5 Productions LLC","Paramount Pictures","Alan Taylor","James Cameron","Arnold Schwarzenegger","Jason Clarke",,"POINT (-122.4157509 37.8084354)","-122.4157509","37.8084354","North Beach","3","2024/12/06 12:17:47 PM","2024/12/18 02:30:38 PM"
"Summertime","2015","Sansome (Washington to Bush) Pine (Davis to Kearny) Bush: Kearny to Battery",,"Creative Monster Productions, Inc.","9 Distribution","Gabriele Muccino","Gabriele Muccino","Jessica Rothe","Scott Bakula","Matilda Anna Ingrid Lutz",,,,,,"2024/12/06 12:17:47 PM","2024/12/18 02:30:38 PM"
"The Net","1995","Montgomery & Market Streets",,"Columbia Pictures Corp.","Columbia Pictures","Irwin Winkler","John Brancato","Sandra Bullock","Jeremy Northam",,"POINT (-122.4019961 37.7888143)","-122.4019961","37.7888143","Financial District/South Beach","3","2024/12/06 12:17:47 PM","2024/12/18 02:30:38 PM"
"Chance Season 2","2017","Embarcadero between Bay and Chestnut St",,"TVM Productions Inc.","Hulu","Rozann Dawson","Alexandra Cunningham","Hugh Laurie","Greta Lee","Ethan Suplee","POINT (-122.406061 37.806607)","-122.406061","37.806607","North Beach","3","2024/12/06 12:17:47 PM","2024/12/18 02:30:38 PM"
"Big Sur","2013","Tosca Café (242 Columbus Avenue, North Beach)",,"3311 Productions",,"Michael Polish","Jack Kerouac & Michael Polish","Josh Lucas","Kate Bosworth","Stana Katic","POINT (-122.406019 37.7975646)","-122.406019","37.7975646","North Beach","3","2024/12/06 12:17:47 PM","2024/12/18 02:30:38 PM"
"Dirty Harry","1971","Holiday Inn Select Downtown Hotel (750 Kearney Street)",,"The Malpaso Company","Warner Brothers","Don Siegel","Harry Julian Fink","Clint Eastwood","Harry Guardino",,"POINT (-122.4042071 37.7951279)","-122.4042071","37.7951279","Chinatown","3","2024/12/06 12:17:47 PM","2024/12/18 02:30:38 PM"
"Hard to Hold","1984","Fairmont Hotel (950 Mason Street, Nob Hill)","In 1945 the Fairmont hosted the United Nations Conference on International Organization as delegates arrived to draft a charter for the organization. The U.S. Secretary of State, Edward Stettinius drafted the charter in the hotel's Garden Room.","Universal Pictures","Universal Pictures","Larry Peerce","Thomas Hedley, Jr.","Rick Springfield",,,"POINT (-122.4100923 37.7923883)","-122.4100923","37.7923883","Nob Hill","3","2024/12/06 12:17:47 PM","2024/12/18 02:30:38 PM"
"Looking Season 2 ep 204","2015","601 Buena Vista Ave West",,"Mission Street Productions, LLC","HBO","Andrew Haigh","Michael Lannan","Jonathan Groff","Frankie Alvarez","Murray Bartlett","POINT (-122.443956 37.7669343)","-122.443956","37.7669343","Haight Ashbury","8","2024/12/06 12:17:47 PM","2024/12/18 02:30:38 PM"
"The Diary of a Teenage Girl","2015","The Magazine at 920 Larkin",,"Diary the Movie, LLC","Sony Pictures Classics","Marielle Heller","Marielle Heller","Alexander Skarsgard","Kristen Wiig","Christopher Meloni","POINT (-122.418059 37.7864628)","-122.418059","37.7864628","Tenderloin","3","2024/12/06 12:17:47 PM","2024/12/18 02:30:38 PM"
"San Andreas","2015","AT&T Stadium","3 characters run out of stadium, there is a group of people on the sidewalk, an earthquake hits, and they duck for cover","Upside Down Productions, Inc.","Warner Bros.","Brad Peyton","Allan Loeb","Dwayne Johnson",,,"POINT (-122.3892168 37.7784136)","-122.3892168","37.7784136","Mission Bay","6","2024/12/06 12:17:47 PM","2024/12/18 02:30:38 PM"
"The Presidio","1988","Fort Point (Presidio, Golden Gate National Recreation Area)","Built in 1853, Fort Point is the only West Coast fort built by the Union Army. Though the Confederate army planned to attack San Francisco, the commanding Confederate general learned that the war had ended while end route to SF.","Paramount Pictures","Paramount Pictures","Peter Hyams","Larry Ferguson","Sean Connery","Mark Harmon","Meg Ryan","POINT (-122.47709 37.8106117)","-122.47709","37.8106117","Presidio","2","2024/12/06 12:17:47 PM","2024/12/18 02:30:38 PM"
"Surface","2022","Baker Beach",,"Apple Studios, LLC","Apple TV+","Sam Miller, Kevin Rodney Sullivan, Jennifer Morrison, Tucker Gates","Veronica West, Erica L. Anderson,Tony Saltzman, Glenise Mullins, Leigh Ann Biety, Dan Lee West, Leigh Ann Biety & Raven Jackson, Martín Zimmerman","Gugu Mbatha-Raw","Oliver Jackson-Cohen","Ari Graynor","POINT (-122.483638 37.7935724)","-122.483638","37.7935724","Presidio","2","2024/12/06 12:17:47 PM","2024/12/18 02:30:38 PM"
"Ballers Season 3","2017","San Remo Hotel (2237 Mason)",,"Chori Perros Productions, LLC","HBO","Julian Farino","Stephen Levinson","Dwayne Johnson","John David Washington","Omar Benson Miller","POINT (-122.413603 37.8042943)","-122.413603","37.8042943","North Beach","3","2024/12/06 12:17:47 PM","2024/12/18 02:30:38 PM"
"Confessions of a Burning Man","2003",,,"Hotbed Media","Windline Films","Paul Barnett","N/A","Kevin Epps","Anna Getty",,,,,,,"2024/12/06 12:17:47 PM","2024/12/18 02:30:38 PM"
"High Crimes","2002","Chase H & Q  (1 Bush Street at Sansome)",,"Twentieth Century Fox Film Corporation","Twentieth Century Fox Film Corporation","Mel Brooks","Mel Brooks","Mel Brooks","Madeline Kahn",,"POINT (-122.4000474 37.7910468)","-122.4000474","37.7910468","Financial District/South Beach","3","2024/12/06 12:17:47 PM","2024/12/18 02:30:38 PM"
"Magnum Force","1973","San Francisco Drydock (20th and Illinois Streets)",,"The Malpaso Company","Warner Bros. Pictures","Ted Post","John Milius","Clint Eastwood","Hal Holbrook","Mitchell Ryan","POINT (-122.3866097 37.760628)","-122.3866097","37.760628","Potrero Hill","10","2024/12/06 12:17:47 PM","2024/12/18 02:30:38 PM"
"The Bachelor","1999","Merchant Exchange (465 California Street at Leidesdorff)",,"George Street Pictures","New Line Cinema","Gary Sinyor","Steve Cohen","Chris O'Donnell","Renee Zellweger",,"POINT (-122.4021715 37.792255)","-122.4021715","37.792255","Financial District/South Beach","3","2024/12/06 12:17:47 PM","2024/12/18 02:30:38 PM"
"Boys and Girls","2000","Aquatic Park (Jefferson Street)","Located at one end of Fisherman's Wharf, Aquatic Park was built as part of FDR's Works Progress Administration Project.","Punch 21 Productions","Dimension Films","Robert Iscove","The Drews","Freddie Prinze, Jr.","Alyson Hannigan",,"POINT (-122.4235663 37.8064162)","-122.4235663","37.8064162","Russian Hill","2","2024/12/06 12:17:47 PM","2024/12/18 02:30:38 PM"
"The OA Part II","2019","Broadway Tunnel",,"Lunar Mining LLC","Netflix","Zal Batmanglij","Zal Batmanglij, Brit Marling","Brit Marling","Emory Cohen","Patrick Gibson","POINT (-122.4149779 37.7966511)","-122.4149779","37.7966511","Nob Hill","3","2024/12/06 12:17:47 PM","2024/12/18 02:30:38 PM"
